,Airline,Airline ID,Source airport,Source airport ID,Destination airport,Destination airport ID,Codeshare,Stops,Equipment,Airport ID_x,Name_x,City,Country,IATA_x,ICAO_x,source_latitude,source_longitude,Altitude,TimeZone_x,DST_x,Tz Database Time Zone_x,Continent,Airport ID_y,Name_y,Destination City,Destination Country,IATA_y,ICAO_y,destination_latitude,destination_longitude,Destination Altitude,TimeZone_y,DST_y,Tz Database Time Zone_y,Destination Continent,Routes
88,LH,3320,MUC,346,KIV,1735,Y,0.0,E95,346.0,Munich Airport,Munich,Germany,MUC,EDDM,48.353802,11.7861,1487.0,1,E,Europe/Berlin,Europe,1735.0,Chi?in?u International Airport,Chisinau,Moldova,KIV,LUKK,46.92770004,28.93099976,399.0,2,E,Europe/Chisinau,Europe,84
103,OS,491,VIE,1613,KIV,1735,Y,0.0,100 DH4 F70,1613.0,Vienna International Airport,Vienna,Austria,VIE,LOWW,48.11029816,16.56970024,600.0,1,E,Europe/Vienna,Europe,1735.0,Chi?in?u International Airport,Chisinau,Moldova,KIV,LUKK,46.92770004,28.93099976,399.0,2,E,Europe/Chisinau,Europe,127
119,UN,5067,DME,4029,MSQ,2954,Y,0.0,735,4029.0,Domodedovo International Airport,Moscow,Russia,DME,UUDD,55.40879822,37.90629959,588.0,3,N,Europe/Moscow,Europe,2954.0,Minsk National Airport,Minsk 2,Belarus,MSQ,UMMS,53.88249969,28.03070068,670.0,3,E,Europe/Minsk,Europe,19
123,S7,4329,LED,2948,MSQ,2954,Y,0.0,CRJ 735,2948.0,Pulkovo Airport,St. Petersburg,Russia,LED,ULLI,59.8003006,30.26250076,78.0,3,N,Europe/Moscow,Europe,2954.0,Minsk National Airport,Minsk 2,Belarus,MSQ,UMMS,53.88249969,28.03070068,670.0,3,E,Europe/Minsk,Europe,9
124,UN,5067,LED,2948,MSQ,2954,Y,0.0,735,2948.0,Pulkovo Airport,St. Petersburg,Russia,LED,ULLI,59.8003006,30.26250076,78.0,3,N,Europe/Moscow,Europe,2954.0,Minsk National Airport,Minsk 2,Belarus,MSQ,UMMS,53.88249969,28.03070068,670.0,3,E,Europe/Minsk,Europe,9
137,LH,3320,FRA,340,MSQ,2954,Y,0.0,E90,340.0,Frankfurt am Main Airport,Frankfurt,Germany,FRA,EDDF,50.033333,8.570556,364.0,1,E,Europe/Berlin,Europe,2954.0,Minsk National Airport,Minsk 2,Belarus,MSQ,UMMS,53.88249969,28.03070068,670.0,3,E,Europe/Minsk,Europe,90
139,AY,2350,HEL,421,MSQ,2954,Y,0.0,CR2 733,421.0,Helsinki Vantaa Airport,Helsinki,Finland,HEL,EFHK,60.31719971,24.9633007,179.0,2,E,Europe/Helsinki,Europe,2954.0,Minsk National Airport,Minsk 2,Belarus,MSQ,UMMS,53.88249969,28.03070068,670.0,3,E,Europe/Minsk,Europe,48
144,OK,1946,PRG,1587,MSQ,2954,Y,0.0,E75 E95 733,1587.0,Václav Havel Airport Prague,Prague,Slovenia,PRG,LKPR,50.1008,14.26,1247.0,1,E,Europe/Prague,Europe,2954.0,Minsk National Airport,Minsk 2,Belarus,MSQ,UMMS,53.88249969,28.03070068,670.0,3,E,Europe/Minsk,Europe,16
145,B2,1478,VIE,1613,MSQ,2954,Y,0.0,F70,1613.0,Vienna International Airport,Vienna,Austria,VIE,LOWW,48.11029816,16.56970024,600.0,1,E,Europe/Vienna,Europe,2954.0,Minsk National Airport,Minsk 2,Belarus,MSQ,UMMS,53.88249969,28.03070068,670.0,3,E,Europe/Minsk,Europe,127
146,OS,491,VIE,1613,MSQ,2954,Y,0.0,100 F70 320 319 321,1613.0,Vienna International Airport,Vienna,Austria,VIE,LOWW,48.11029816,16.56970024,600.0,1,E,Europe/Vienna,Europe,2954.0,Minsk National Airport,Minsk 2,Belarus,MSQ,UMMS,53.88249969,28.03070068,670.0,3,E,Europe/Minsk,Europe,127
189,MH,3378,KUL,3304,TAS,2983,Y,0.0,764,3304.0,Kuala Lumpur International Airport,Kuala Lumpur,Malaysia,KUL,WMKK,2.745579958,101.7099991,69.0,8,N,Asia/Kuala_Lumpur,Asia,2983.0,Tashkent International Airport,Tashkent,Uzbekistan,TAS,UTTT,41.25790024,69.28119659,1417.0,5,U,Asia/Samarkand,Asia,21
191,MH,3378,SIN,3316,TAS,2983,Y,0.0,752,3316.0,Singapore Changi Airport,Singapore,Singapore,SIN,WSSS,1.35019,103.994003,22.0,8,N,Asia/Singapore,Asia,2983.0,Tashkent International Airport,Tashkent,Uzbekistan,TAS,UTTT,41.25790024,69.28119659,1417.0,5,U,Asia/Samarkand,Asia,77
251,TK,4951,SAW,4317,TZX,1726,Y,0.0,738,4317.0,Sabiha Gökçen International Airport,Istanbul,Turkey,SAW,LTFJ,40.89860153,29.30920029,312.0,3,E,Europe/Istanbul,Asia,1726.0,Trabzon International Airport,Trabzon,Turkey,TZX,LTCG,40.99509811,39.78969955,104.0,3,E,Europe/Istanbul,Asia,13
258,TK,4951,ESB,1682,TZX,1726,Y,0.0,738,1682.0,Esenbo?a International Airport,Ankara,Turkey,ESB,LTAC,40.12810135,32.99509811,3125.0,3,E,Europe/Istanbul,Asia,1726.0,Trabzon International Airport,Trabzon,Turkey,TZX,LTCG,40.99509811,39.78969955,104.0,3,E,Europe/Istanbul,Asia,27
330,OS,491,VIE,1613,KRR,2960,Y,0.0,100 F70 319,1613.0,Vienna International Airport,Vienna,Austria,VIE,LOWW,48.11029816,16.56970024,600.0,1,E,Europe/Vienna,Europe,2960.0,Krasnodar Pashkovsky International Airport,Krasnodar,Russia,KRR,URKK,45.03469849,39.17050171,118.0,3,N,Europe/Moscow,Europe,127
378,S7,4329,NJC,2972,DME,4029,Y,0.0,319,2972.0,Nizhnevartovsk Airport,Nizhnevartovsk,Russia,NJC,USNN,60.94929886,76.4835968,177.0,5,N,Asia/Yekaterinburg,Europe,4029.0,Domodedovo International Airport,Moscow,Russia,DME,UUDD,55.40879822,37.90629959,588.0,3,N,Europe/Moscow,Europe,1
392,S7,4329,HTA,2935,DME,4029,Y,0.0,738,2935.0,Chita-Kadala Airport,Chita,Russia,HTA,UIAA,52.026299,113.306,2272.0,9,N,Asia/Yakutsk,Europe,4029.0,Domodedovo International Airport,Moscow,Russia,DME,UUDD,55.40879822,37.90629959,588.0,3,N,Europe/Moscow,Europe,1
397,S7,4329,YKS,2923,DME,4029,Y,0.0,738,2923.0,Yakutsk Airport,Yakutsk,Russia,YKS,UEEE,62.09329987,129.7709961,325.0,9,N,Asia/Yakutsk,Europe,4029.0,Domodedovo International Airport,Moscow,Russia,DME,UUDD,55.40879822,37.90629959,588.0,3,N,Europe/Moscow,Europe,2
404,IB,2822,BCN,1218,DME,4029,Y,0.0,320,1218.0,Barcelona International Airport,Barcelona,Spain,BCN,LEBL,41.2971,2.07846,12.0,1,E,Europe/Madrid,Europe,4029.0,Domodedovo International Airport,Moscow,Russia,DME,UUDD,55.40879822,37.90629959,588.0,3,N,Europe/Moscow,Europe,94
421,S7,4329,DUS,345,DME,4029,Y,0.0,738,345.0,Düsseldorf Airport,Duesseldorf,Germany,DUS,EDDL,51.289501,6.76678,147.0,1,E,Europe/Berlin,Europe,4029.0,Domodedovo International Airport,Moscow,Russia,DME,UUDD,55.40879822,37.90629959,588.0,3,N,Europe/Moscow,Europe,45
429,IB,2822,PMI,3998,DME,4029,Y,0.0,320,3998.0,Palma De Mallorca Airport,Palma de Mallorca,Spain,PMI,LEPA,39.55170059,2.738810062,27.0,1,E,Europe/Madrid,Europe,4029.0,Domodedovo International Airport,Moscow,Russia,DME,UUDD,55.40879822,37.90629959,588.0,3,N,Europe/Moscow,Europe,29
447,S7,4329,TIV,1743,DME,4029,Y,0.0,738,1743.0,Tivat Airport,Tivat,Montenegro,TIV,LYTV,42.40470123,18.72330093,20.0,1,E,Europe/Podgorica,Europe,4029.0,Domodedovo International Airport,Moscow,Russia,DME,UUDD,55.40879822,37.90629959,588.0,3,N,Europe/Moscow,Europe,1
468,IB,2822,AGP,1230,DME,4029,Y,0.0,320,1230.0,Málaga Airport,Malaga,Spain,AGP,LEMG,36.67490005,-4.499110222,53.0,1,E,Europe/Madrid,Europe,4029.0,Domodedovo International Airport,Moscow,Russia,DME,UUDD,55.40879822,37.90629959,588.0,3,N,Europe/Moscow,Europe,30
476,AB,214,FRA,340,DME,4029,Y,0.0,319,340.0,Frankfurt am Main Airport,Frankfurt,Germany,FRA,EDDF,50.033333,8.570556,364.0,1,E,Europe/Berlin,Europe,4029.0,Domodedovo International Airport,Moscow,Russia,DME,UUDD,55.40879822,37.90629959,588.0,3,N,Europe/Moscow,Europe,90
487,S7,4329,LIS,1638,DME,4029,Y,0.0,320,1638.0,Humberto Delgado Airport (Lisbon Portela Airport),Lisbon,Portugal,LIS,LPPT,38.7813,-9.13592,374.0,0,E,Europe/Lisbon,Europe,4029.0,Domodedovo International Airport,Moscow,Russia,DME,UUDD,55.40879822,37.90629959,588.0,3,N,Europe/Moscow,Europe,58
494,S7,4329,PUY,1203,DME,4029,Y,0.0,320 738,1203.0,Pula Airport,Pula,Croatia,PUY,LDPL,44.89350128,13.9222002,274.0,1,E,Europe/Zagreb,Europe,4029.0,Domodedovo International Airport,Moscow,Russia,DME,UUDD,55.40879822,37.90629959,588.0,3,N,Europe/Moscow,Europe,1
503,OS,491,VIE,1613,DME,4029,Y,0.0,320,1613.0,Vienna International Airport,Vienna,Austria,VIE,LOWW,48.11029816,16.56970024,600.0,1,E,Europe/Vienna,Europe,4029.0,Domodedovo International Airport,Moscow,Russia,DME,UUDD,55.40879822,37.90629959,588.0,3,N,Europe/Moscow,Europe,127
505,UA,5209,VIE,1613,DME,4029,Y,0.0,320,1613.0,Vienna International Airport,Vienna,Austria,VIE,LOWW,48.11029816,16.56970024,600.0,1,E,Europe/Vienna,Europe,4029.0,Domodedovo International Airport,Moscow,Russia,DME,UUDD,55.40879822,37.90629959,588.0,3,N,Europe/Moscow,Europe,127
506,UN,5067,VIE,1613,DME,4029,Y,0.0,32S,1613.0,Vienna International Airport,Vienna,Austria,VIE,LOWW,48.11029816,16.56970024,600.0,1,E,Europe/Vienna,Europe,4029.0,Domodedovo International Airport,Moscow,Russia,DME,UUDD,55.40879822,37.90629959,588.0,3,N,Europe/Moscow,Europe,127
507,S7,4329,VRN,1550,DME,4029,Y,0.0,320 738,1550.0,Verona Villafranca Airport,Villafranca,Italy,VRN,LIPX,45.395699,10.8885,239.0,1,E,Europe/Rome,Europe,4029.0,Domodedovo International Airport,Moscow,Russia,DME,UUDD,55.40879822,37.90629959,588.0,3,N,Europe/Moscow,Europe,6
560,PS,5282,ODS,2947,DME,4029,Y,0.0,319,2947.0,Odessa International Airport,Odessa,Ukraine,ODS,UKOO,46.42679977,30.67650032,172.0,2,E,Europe/Kiev,Europe,4029.0,Domodedovo International Airport,Moscow,Russia,DME,UUDD,55.40879822,37.90629959,588.0,3,N,Europe/Moscow,Europe,3
577,IB,2822,ALC,1212,DME,4029,Y,0.0,320,1212.0,Alicante International Airport,Alicante,Spain,ALC,LEAL,38.28219986,-0.558156013,142.0,1,E,Europe/Madrid,Europe,4029.0,Domodedovo International Airport,Moscow,Russia,DME,UUDD,55.40879822,37.90629959,588.0,3,N,Europe/Moscow,Europe,14
590,UN,5067,MSQ,2954,DME,4029,Y,0.0,735,2954.0,Minsk National Airport,Minsk 2,Belarus,MSQ,UMMS,53.88249969,28.03070068,670.0,3,E,Europe/Minsk,Europe,4029.0,Domodedovo International Airport,Moscow,Russia,DME,UUDD,55.40879822,37.90629959,588.0,3,N,Europe/Moscow,Europe,8
643,Z6,16120,DNK,2941,DME,4029,Y,0.0,ER4,2941.0,Dnipropetrovsk International Airport,Dnepropetrovsk,Ukraine,DNK,UKDD,48.35720062,35.1006012,481.0,2,E,Europe/Kiev,Europe,4029.0,Domodedovo International Airport,Moscow,Russia,DME,UUDD,55.40879822,37.90629959,588.0,3,N,Europe/Moscow,Europe,4
654,S7,4329,NSK,4352,DME,4029,Y,0.0,738,4352.0,Norilsk-Alykel Airport,Norilsk,Russia,NSK,UOOO,69.31109619,87.3321991,574.0,7,N,Asia/Krasnoyarsk,Europe,4029.0,Domodedovo International Airport,Moscow,Russia,DME,UUDD,55.40879822,37.90629959,588.0,3,N,Europe/Moscow,Europe,1
672,Z6,16120,UKS,7863,DME,4029,Y,0.0,ER4,7863.0,Belbek Airport,Sevastopol,Ukraine,UKS,UKFB,44.68899918,33.57099915,344.0,3,U,Europe/Simferopol,Europe,4029.0,Domodedovo International Airport,Moscow,Russia,DME,UUDD,55.40879822,37.90629959,588.0,3,N,Europe/Moscow,Europe,2
706,TG,4940,BKK,3885,IST,1701,Y,0.0,77W 330,3885.0,Suvarnabhumi Airport,Bangkok,Thailand,BKK,VTBS,13.68109989,100.7470016,5.0,7,U,Asia/Bangkok,Asia,13696.0,Istanbul Airport,Istanbul,Turkey,IST,LTFM,41.275278,28.751944,325.0,3,E,\N,Asia,58
709,NH,324,KIX,3992,IST,1701,Y,0.0,332,3992.0,Kansai International Airport,Osaka,Japan,KIX,RJBB,34.4272995,135.2440033,26.0,9,U,Asia/Tokyo,Asia,13696.0,Istanbul Airport,Istanbul,Turkey,IST,LTFM,41.275278,28.751944,325.0,3,E,\N,Asia,29
713,GA,2520,SIN,3316,IST,1701,Y,0.0,330,3316.0,Singapore Changi Airport,Singapore,Singapore,SIN,WSSS,1.35019,103.994003,22.0,8,N,Asia/Singapore,Asia,13696.0,Istanbul Airport,Istanbul,Turkey,IST,LTFM,41.275278,28.751944,325.0,3,E,\N,Asia,77
755,QF,4089,DXB,2188,IST,1701,Y,0.0,77W,2188.0,Dubai International Airport,Dubai,United Arab Emirates,DXB,OMDB,25.25279999,55.36439896,62.0,4,U,Asia/Dubai,Asia,13696.0,Istanbul Airport,Istanbul,Turkey,IST,LTFM,41.275278,28.751944,325.0,3,E,\N,Asia,17
765,AI,218,DEL,3093,IST,1701,Y,0.0,330,3093.0,Indira Gandhi International Airport,Delhi,India,DEL,VIDP,28.5665,77.103104,777.0,5.5,N,Asia/Calcutta,Asia,13696.0,Istanbul Airport,Istanbul,Turkey,IST,LTFM,41.275278,28.751944,325.0,3,E,\N,Asia,48
830,NH,324,NRT,2279,IST,1701,Y,0.0,77W 332,2279.0,Narita International Airport,Tokyo,Japan,NRT,RJAA,35.76470184,140.3860016,141.0,9,U,Asia/Tokyo,Asia,13696.0,Istanbul Airport,Istanbul,Turkey,IST,LTFM,41.275278,28.751944,325.0,3,E,\N,Asia,37
834,AI,218,BOM,2997,IST,1701,Y,0.0,330,2997.0,Chhatrapati Shivaji International Airport,Mumbai,India,BOM,VABB,19.08869934,72.86789703,39.0,5.5,N,Asia/Calcutta,Asia,13696.0,Istanbul Airport,Istanbul,Turkey,IST,LTFM,41.275278,28.751944,325.0,3,E,\N,Asia,43
1066,IB,2822,BCN,1218,LED,2948,Y,0.0,320,1218.0,Barcelona International Airport,Barcelona,Spain,BCN,LEBL,41.2971,2.07846,12.0,1,E,Europe/Madrid,Europe,2948.0,Pulkovo Airport,St. Petersburg,Russia,LED,ULLI,59.8003006,30.26250076,78.0,3,N,Europe/Moscow,Europe,94
1078,SU,130,AMS,580,LED,2948,Y,0.0,737,580.0,Amsterdam Airport Schiphol,Amsterdam,Netherlands,AMS,EHAM,52.308601,4.76389,-11.0,1,E,Europe/Amsterdam,Europe,2948.0,Pulkovo Airport,St. Petersburg,Russia,LED,ULLI,59.8003006,30.26250076,78.0,3,N,Europe/Moscow,Europe,95
1113,AY,2350,HEL,421,LED,2948,Y,0.0,ATR,421.0,Helsinki Vantaa Airport,Helsinki,Finland,HEL,EFHK,60.31719971,24.9633007,179.0,2,E,Europe/Helsinki,Europe,2948.0,Pulkovo Airport,St. Petersburg,Russia,LED,ULLI,59.8003006,30.26250076,78.0,3,N,Europe/Moscow,Europe,48
1130,AZ,596,VCE,1551,LED,2948,Y,0.0,320,1551.0,Venice Marco Polo Airport,Venice,Italy,VCE,LIPZ,45.505299,12.3519,7.0,1,E,Europe/Rome,Europe,2948.0,Pulkovo Airport,St. Petersburg,Russia,LED,ULLI,59.8003006,30.26250076,78.0,3,N,Europe/Moscow,Europe,23
1131,OS,491,VIE,1613,LED,2948,Y,0.0,100 F70,1613.0,Vienna International Airport,Vienna,Austria,VIE,LOWW,48.11029816,16.56970024,600.0,1,E,Europe/Vienna,Europe,2948.0,Pulkovo Airport,St. Petersburg,Russia,LED,ULLI,59.8003006,30.26250076,78.0,3,N,Europe/Moscow,Europe,127
1133,UA,5209,VIE,1613,LED,2948,Y,0.0,100 F70,1613.0,Vienna International Airport,Vienna,Austria,VIE,LOWW,48.11029816,16.56970024,600.0,1,E,Europe/Vienna,Europe,2948.0,Pulkovo Airport,St. Petersburg,Russia,LED,ULLI,59.8003006,30.26250076,78.0,3,N,Europe/Moscow,Europe,127
1187,S7,4329,MSQ,2954,LED,2948,Y,0.0,CRJ 735,2954.0,Minsk National Airport,Minsk 2,Belarus,MSQ,UMMS,53.88249969,28.03070068,670.0,3,E,Europe/Minsk,Europe,2948.0,Pulkovo Airport,St. Petersburg,Russia,LED,ULLI,59.8003006,30.26250076,78.0,3,N,Europe/Moscow,Europe,8
1188,UN,5067,MSQ,2954,LED,2948,Y,0.0,735,2954.0,Minsk National Airport,Minsk 2,Belarus,MSQ,UMMS,53.88249969,28.03070068,670.0,3,E,Europe/Minsk,Europe,2948.0,Pulkovo Airport,St. Petersburg,Russia,LED,ULLI,59.8003006,30.26250076,78.0,3,N,Europe/Moscow,Europe,8
1209,SU,130,KLV,1579,LED,2948,Y,0.0,320,1579.0,Karlovy Vary International Airport,Karlovy Vary,Slovenia,KLV,LKKV,50.20299911,12.91499996,1989.0,1,E,Europe/Prague,Europe,2948.0,Pulkovo Airport,St. Petersburg,Russia,LED,ULLI,59.8003006,30.26250076,78.0,3,N,Europe/Moscow,Europe,1
1257,SK,4319,OSL,644,SVO,2985,Y,0.0,320,644.0,Oslo Lufthavn,Oslo,Norway,OSL,ENGM,60.121,11.0502,681.0,1,E,Europe/Oslo,Europe,2985.0,Sheremetyevo International Airport,Moscow,Russia,SVO,UUEE,55.972599,37.4146,622.0,3,N,Europe/Moscow,Europe,18
1269,SU,130,TXL,351,SVO,2985,Y,0.0,737,351.0,Berlin-Tegel Airport,Berlin,Germany,TXL,EDDT,52.5597,13.2877,122.0,1,E,Europe/Berlin,Europe,2985.0,Sheremetyevo International Airport,Moscow,Russia,SVO,UUEE,55.972599,37.4146,622.0,3,N,Europe/Moscow,Europe,43
1272,AZ,596,BLQ,1538,SVO,2985,Y,0.0,320,1538.0,Bologna Guglielmo Marconi Airport,Bologna,Italy,BLQ,LIPE,44.5354,11.2887,123.0,1,E,Europe/Rome,Europe,2985.0,Sheremetyevo International Airport,Moscow,Russia,SVO,UUEE,55.972599,37.4146,622.0,3,N,Europe/Moscow,Europe,13
1310,UX,90,AGP,1230,SVO,2985,Y,0.0,32S,1230.0,Málaga Airport,Malaga,Spain,AGP,LEMG,36.67490005,-4.499110222,53.0,1,E,Europe/Madrid,Europe,2985.0,Sheremetyevo International Airport,Moscow,Russia,SVO,UUEE,55.972599,37.4146,622.0,3,N,Europe/Moscow,Europe,30
1330,UX,90,MAD,1229,SVO,2985,Y,0.0,32S,1229.0,Adolfo Suárez MadridBarajas Airport,Madrid,Spain,MAD,LEMD,40.471926,-3.56264,1998.0,1,E,Europe/Madrid,Europe,2985.0,Sheremetyevo International Airport,Moscow,Russia,SVO,UUEE,55.972599,37.4146,622.0,3,N,Europe/Moscow,Europe,69
1335,AZ,596,PMO,1512,SVO,2985,Y,0.0,320,1512.0,FalconeBorsellino Airport,Palermo,Italy,PMO,LICJ,38.175999,13.091,65.0,1,E,Europe/Rome,Europe,2985.0,Sheremetyevo International Airport,Moscow,Russia,SVO,UUEE,55.972599,37.4146,622.0,3,N,Europe/Moscow,Europe,13
1339,AZ,596,PSA,1562,SVO,2985,Y,0.0,320,1562.0,Pisa International Airport,Pisa,Italy,PSA,LIRP,43.683899,10.3927,6.0,1,E,Europe/Rome,Europe,2985.0,Sheremetyevo International Airport,Moscow,Russia,SVO,UUEE,55.972599,37.4146,622.0,3,N,Europe/Moscow,Europe,8
1343,AZ,596,VCE,1551,SVO,2985,Y,0.0,321 320,1551.0,Venice Marco Polo Airport,Venice,Italy,VCE,LIPZ,45.505299,12.3519,7.0,1,E,Europe/Rome,Europe,2985.0,Sheremetyevo International Airport,Moscow,Russia,SVO,UUEE,55.972599,37.4146,622.0,3,N,Europe/Moscow,Europe,23
1352,SU,130,ARH,4362,SVO,2985,Y,0.0,735,4362.0,Talagi Airport,Arkhangelsk,Russia,ARH,ULAA,64.60030365,40.71670151,62.0,3,N,Europe/Moscow,Europe,2985.0,Sheremetyevo International Airport,Moscow,Russia,SVO,UUEE,55.972599,37.4146,622.0,3,N,Europe/Moscow,Europe,4
1354,SU,130,MMK,2949,SVO,2985,Y,0.0,735,2949.0,Murmansk Airport,Murmansk,Russia,MMK,ULMM,68.78170013,32.75080109,266.0,3,N,Europe/Moscow,Europe,2985.0,Sheremetyevo International Airport,Moscow,Russia,SVO,UUEE,55.972599,37.4146,622.0,3,N,Europe/Moscow,Europe,3
1356,SU,130,SCW,2989,SVO,2985,Y,0.0,735,2989.0,Syktyvkar Airport,Syktyvkar,Russia,SCW,UUYY,61.64699936,50.8451004,342.0,3,N,Europe/Moscow,Europe,2985.0,Sheremetyevo International Airport,Moscow,Russia,SVO,UUEE,55.972599,37.4146,622.0,3,N,Europe/Moscow,Europe,1
1601,VS,5347,LHR,507,VKO,2988,Y,0.0,73H 73G 738,507.0,London Heathrow Airport,London,United Kingdom,LHR,EGLL,51.4706,-0.461941,83.0,0,E,Europe/London,Europe,2988.0,Vnukovo International Airport,Moscow,Russia,VKO,UUWW,55.59149933,37.26150131,685.0,3,N,Europe/Moscow,Europe,94
1605,OS,491,VIE,1613,VKO,2988,Y,0.0,735,1613.0,Vienna International Airport,Vienna,Austria,VIE,LOWW,48.11029816,16.56970024,600.0,1,E,Europe/Vienna,Europe,2988.0,Vnukovo International Airport,Moscow,Russia,VKO,UUWW,55.59149933,37.26150131,685.0,3,N,Europe/Moscow,Europe,127
1814,TK,4951,ADA,1685,SAW,4317,Y,0.0,738,1685.0,Adana Airport,Adana,Turkey,ADA,LTAF,36.98220062,35.28039932,65.0,3,E,Europe/Istanbul,Asia,4317.0,Sabiha Gökçen International Airport,Istanbul,Turkey,SAW,LTFJ,40.89860153,29.30920029,312.0,3,E,Europe/Istanbul,Asia,2
1821,TK,4951,DIY,1722,SAW,4317,Y,0.0,738,1722.0,Diyarbakir Airport,Diyabakir,Turkey,DIY,LTCC,37.89390183,40.20100021,2251.0,3,E,Europe/Istanbul,Asia,4317.0,Sabiha Gökçen International Airport,Istanbul,Turkey,SAW,LTFJ,40.89860153,29.30920029,312.0,3,E,Europe/Istanbul,Asia,2
1826,TK,4951,ERZ,1724,SAW,4317,Y,0.0,73W 738,1724.0,Erzurum International Airport,Erzurum,Turkey,ERZ,LTCE,39.95650101,41.17020035,5763.0,3,E,Europe/Istanbul,Asia,4317.0,Sabiha Gökçen International Airport,Istanbul,Turkey,SAW,LTFJ,40.89860153,29.30920029,312.0,3,E,Europe/Istanbul,Asia,2
1828,TK,4951,EZS,1721,SAW,4317,Y,0.0,73W,1721.0,Elaz?? Airport,Elazig,Turkey,EZS,LTCA,38.60689926,39.29140091,2927.0,3,E,Europe/Istanbul,Asia,4317.0,Sabiha Gökçen International Airport,Istanbul,Turkey,SAW,LTFJ,40.89860153,29.30920029,312.0,3,E,Europe/Istanbul,Asia,2
1832,TK,4951,GZT,1689,SAW,4317,Y,0.0,73G,1689.0,Gaziantep International Airport,Gaziantep,Turkey,GZT,LTAJ,36.94720078,37.47869873,2315.0,3,E,Europe/Istanbul,Asia,4317.0,Sabiha Gökçen International Airport,Istanbul,Turkey,SAW,LTFJ,40.89860153,29.30920029,312.0,3,E,Europe/Istanbul,Asia,2
1835,TK,4951,TZX,1726,SAW,4317,Y,0.0,738,1726.0,Trabzon International Airport,Trabzon,Turkey,TZX,LTCG,40.99509811,39.78969955,104.0,3,E,Europe/Istanbul,Asia,4317.0,Sabiha Gökçen International Airport,Istanbul,Turkey,SAW,LTFJ,40.89860153,29.30920029,312.0,3,E,Europe/Istanbul,Asia,2
1864,TK,4951,ASR,1696,SAW,4317,Y,0.0,73W,1696.0,Kayseri Erkilet Airport,Kayseri,Turkey,ASR,LTAU,38.770401,35.49539948,3463.0,3,E,Europe/Istanbul,Asia,4317.0,Sabiha Gökçen International Airport,Istanbul,Turkey,SAW,LTFJ,40.89860153,29.30920029,312.0,3,E,Europe/Istanbul,Asia,1
1870,TK,4951,HTY,7453,SAW,4317,Y,0.0,73W,7453.0,Hatay Airport,Hatay,Turkey,HTY,LTDA,36.36277771,36.28222275,269.0,3,U,Europe/Istanbul,Asia,4317.0,Sabiha Gökçen International Airport,Istanbul,Turkey,SAW,LTFJ,40.89860153,29.30920029,312.0,3,E,Europe/Istanbul,Asia,2
1873,TK,4951,KYA,1691,SAW,4317,Y,0.0,73W,1691.0,Konya Airport,Konya,Turkey,KYA,LTAN,37.979,32.561901,3392.0,3,E,Europe/Istanbul,Asia,4317.0,Sabiha Gökçen International Airport,Istanbul,Turkey,SAW,LTFJ,40.89860153,29.30920029,312.0,3,E,Europe/Istanbul,Asia,1
1875,TK,4951,MQM,6753,SAW,4317,Y,0.0,738,6753.0,Mardin Airport,Mardin,Turkey,MQM,LTCR,37.22330093,40.63169861,1729.0,3,E,Europe/Istanbul,Asia,4317.0,Sabiha Gökçen International Airport,Istanbul,Turkey,SAW,LTFJ,40.89860153,29.30920029,312.0,3,E,Europe/Istanbul,Asia,2
1880,TK,4951,VAN,1728,SAW,4317,Y,0.0,738,1728.0,Van Ferit Melen Airport,Van,Turkey,VAN,LTCI,38.46820068,43.33229828,5480.0,3,E,Europe/Istanbul,Asia,4317.0,Sabiha Gökçen International Airport,Istanbul,Turkey,SAW,LTFJ,40.89860153,29.30920029,312.0,3,E,Europe/Istanbul,Asia,2
1882,TK,4951,VAS,1694,SAW,4317,Y,0.0,738,1694.0,Sivas Nuri Demira? Airport,Sivas,Turkey,VAS,LTAR,39.813801,36.9035,5239.0,3,E,Europe/Istanbul,Asia,4317.0,Sabiha Gökçen International Airport,Istanbul,Turkey,SAW,LTFJ,40.89860153,29.30920029,312.0,3,E,Europe/Istanbul,Asia,1
1884,TK,4951,KSY,5796,SAW,4317,Y,0.0,738,5796.0,Kars Airport,Kars,Turkey,KSY,LTCF,40.56219864,43.11500168,5889.0,3,E,Europe/Istanbul,Asia,4317.0,Sabiha Gökçen International Airport,Istanbul,Turkey,SAW,LTFJ,40.89860153,29.30920029,312.0,3,E,Europe/Istanbul,Asia,2
1911,S7,4329,YKS,2923,OVB,4078,Y,0.0,738,2923.0,Yakutsk Airport,Yakutsk,Russia,YKS,UEEE,62.09329987,129.7709961,325.0,9,N,Asia/Yakutsk,Europe,4078.0,Tolmachevo Airport,Novosibirsk,Russia,OVB,UNNT,55.01259995,82.65070343,365.0,7,N,Asia/Krasnoyarsk,Europe,2
1917,S7,4329,MUC,346,OVB,4078,Y,0.0,738,346.0,Munich Airport,Munich,Germany,MUC,EDDM,48.353802,11.7861,1487.0,1,E,Europe/Berlin,Europe,4078.0,Tolmachevo Airport,Novosibirsk,Russia,OVB,UNNT,55.01259995,82.65070343,365.0,7,N,Asia/Krasnoyarsk,Europe,84
1997,IB,2822,BCN,1218,PRG,1587,Y,0.0,320 319,1218.0,Barcelona International Airport,Barcelona,Spain,BCN,LEBL,41.2971,2.07846,12.0,1,E,Europe/Madrid,Europe,1587.0,Václav Havel Airport Prague,Prague,Slovenia,PRG,LKPR,50.1008,14.26,1247.0,1,E,Europe/Prague,Europe,94
2013,KL,3090,AMS,580,PRG,1587,Y,0.0,F70 EMJ 737,580.0,Amsterdam Airport Schiphol,Amsterdam,Netherlands,AMS,EHAM,52.308601,4.76389,-11.0,1,E,Europe/Amsterdam,Europe,1587.0,Václav Havel Airport Prague,Prague,Slovenia,PRG,LKPR,50.1008,14.26,1247.0,1,E,Europe/Prague,Europe,95
2021,UA,5209,BRU,302,PRG,1587,Y,0.0,DH4,302.0,Brussels Airport,Brussels,Belgium,BRU,EBBR,50.90140152,4.48443985,184.0,1,E,Europe/Brussels,Europe,1587.0,Václav Havel Airport Prague,Prague,Slovenia,PRG,LKPR,50.1008,14.26,1247.0,1,E,Europe/Prague,Europe,52
2024,AF,137,LYS,1335,PRG,1587,Y,0.0,E90 CRK,1335.0,Lyon Saint-Exupéry Airport,Lyon,France,LYS,LFLL,45.725556,5.081111,821.0,1,E,Europe/Paris,Europe,1587.0,Václav Havel Airport Prague,Prague,Slovenia,PRG,LKPR,50.1008,14.26,1247.0,1,E,Europe/Prague,Europe,24
2038,LX,4559,BSL,1423,PRG,1587,Y,0.0,AR1,1423.0,EuroAirport Basel-Mulhouse-Freiburg Airport,Mulhouse,France,BSL,LFSB,47.59,7.5291667,885.0,1,E,Europe/Paris,Europe,1587.0,Václav Havel Airport Prague,Prague,Slovenia,PRG,LKPR,50.1008,14.26,1247.0,1,E,Europe/Prague,Europe,19
2047,AZ,596,CDG,1382,PRG,1587,Y,0.0,321 320 32A,1382.0,Charles de Gaulle International Airport,Paris,France,CDG,LFPG,49.012798,2.55,392.0,1,E,Europe/Paris,Europe,1587.0,Václav Havel Airport Prague,Prague,Slovenia,PRG,LKPR,50.1008,14.26,1247.0,1,E,Europe/Prague,Europe,77
2056,IB,2822,FCO,1555,PRG,1587,Y,0.0,320,1555.0,Leonardo da VinciFiumicino Airport,Rome,Italy,FCO,LIRF,41.8002778,12.2388889,13.0,1,E,Europe/Rome,Europe,1587.0,Václav Havel Airport Prague,Prague,Slovenia,PRG,LKPR,50.1008,14.26,1247.0,1,E,Europe/Prague,Europe,29
2062,ET,2220,FRA,340,PRG,1587,Y,0.0,321,340.0,Frankfurt am Main Airport,Frankfurt,Germany,FRA,EDDF,50.033333,8.570556,364.0,1,E,Europe/Berlin,Europe,1587.0,Václav Havel Airport Prague,Prague,Slovenia,PRG,LKPR,50.1008,14.26,1247.0,1,E,Europe/Prague,Europe,90
2068,OK,1946,HEL,421,PRG,1587,Y,0.0,319 320,421.0,Helsinki Vantaa Airport,Helsinki,Finland,HEL,EFHK,60.31719971,24.9633007,179.0,2,E,Europe/Helsinki,Europe,1587.0,Václav Havel Airport Prague,Prague,Slovenia,PRG,LKPR,50.1008,14.26,1247.0,1,E,Europe/Prague,Europe,48
2070,AA,24,LHR,507,PRG,1587,Y,0.0,320,507.0,London Heathrow Airport,London,United Kingdom,LHR,EGLL,51.4706,-0.461941,83.0,0,E,Europe/London,Europe,1587.0,Václav Havel Airport Prague,Prague,Slovenia,PRG,LKPR,50.1008,14.26,1247.0,1,E,Europe/Prague,Europe,94
2086,AZ,596,PSA,1562,PRG,1587,Y,0.0,320,1562.0,Pisa International Airport,Pisa,Italy,PSA,LIRP,43.683899,10.3927,6.0,1,E,Europe/Rome,Europe,1587.0,Václav Havel Airport Prague,Prague,Slovenia,PRG,LKPR,50.1008,14.26,1247.0,1,E,Europe/Prague,Europe,8
2094,AZ,596,VCE,1551,PRG,1587,Y,0.0,320,1551.0,Venice Marco Polo Airport,Venice,Italy,VCE,LIPZ,45.505299,12.3519,7.0,1,E,Europe/Rome,Europe,1587.0,Václav Havel Airport Prague,Prague,Slovenia,PRG,LKPR,50.1008,14.26,1247.0,1,E,Europe/Prague,Europe,23
2095,OS,491,VIE,1613,PRG,1587,Y,0.0,100 DH4 F70,1613.0,Vienna International Airport,Vienna,Austria,VIE,LOWW,48.11029816,16.56970024,600.0,1,E,Europe/Vienna,Europe,1587.0,Václav Havel Airport Prague,Prague,Slovenia,PRG,LKPR,50.1008,14.26,1247.0,1,E,Europe/Prague,Europe,127
2124,OK,1946,SOF,1194,PRG,1587,Y,0.0,319 E90,1194.0,Sofia Airport,Sofia,Bulgaria,SOF,LBSF,42.69669342,23.41143608,1742.0,2,E,Europe/Sofia,Europe,1587.0,Václav Havel Airport Prague,Prague,Slovenia,PRG,LKPR,50.1008,14.26,1247.0,1,E,Europe/Prague,Europe,7
2133,OK,1946,MLA,1606,PRG,1587,Y,0.0,320,1606.0,Malta International Airport,Malta,Malta,MLA,LMML,35.857498,14.4775,300.0,1,E,Europe/Malta,Europe,1587.0,Václav Havel Airport Prague,Prague,Slovenia,PRG,LKPR,50.1008,14.26,1247.0,1,E,Europe/Prague,Europe,11
2139,OK,1946,MSQ,2954,PRG,1587,Y,0.0,E75 E95 733,2954.0,Minsk National Airport,Minsk 2,Belarus,MSQ,UMMS,53.88249969,28.03070068,670.0,3,E,Europe/Minsk,Europe,1587.0,Václav Havel Airport Prague,Prague,Slovenia,PRG,LKPR,50.1008,14.26,1247.0,1,E,Europe/Prague,Europe,8
2145,DL,2009,BTS,1745,PRG,1587,Y,0.0,AT4,1745.0,M. R. tefánik Airport,Bratislava,Slovakia,BTS,LZIB,48.17020035,17.21269989,436.0,1,E,Europe/Bratislava,Europe,1587.0,Václav Havel Airport Prague,Prague,Slovenia,PRG,LKPR,50.1008,14.26,1247.0,1,E,Europe/Prague,Europe,1
2350,S7,4329,DME,4029,TIV,1743,Y,0.0,738,4029.0,Domodedovo International Airport,Moscow,Russia,DME,UUDD,55.40879822,37.90629959,588.0,3,N,Europe/Moscow,Europe,1743.0,Tivat Airport,Tivat,Montenegro,TIV,LYTV,42.40470123,18.72330093,20.0,1,E,Europe/Podgorica,Europe,19
2421,GF,2638,LCA,1197,ATH,3941,Y,0.0,320,1197.0,Larnaca International Airport,Larnaca,Cyprus,LCA,LCLK,34.87509918,33.62490082,8.0,2,E,Asia/Nicosia,Europe,3941.0,Eleftherios Venizelos International Airport,Athens,Greece,ATH,LGAV,37.93640137,23.94449997,308.0,2,E,Europe/Athens,Europe,8
2422,US,5265,LCA,1197,ATH,3941,Y,0.0,320,1197.0,Larnaca International Airport,Larnaca,Cyprus,LCA,LCLK,34.87509918,33.62490082,8.0,2,E,Asia/Nicosia,Europe,3941.0,Eleftherios Venizelos International Airport,Athens,Greece,ATH,LGAV,37.93640137,23.94449997,308.0,2,E,Europe/Athens,Europe,8
2426,A3,96,OSL,644,ATH,3941,Y,0.0,73W 73G,644.0,Oslo Lufthavn,Oslo,Norway,OSL,ENGM,60.121,11.0502,681.0,1,E,Europe/Oslo,Europe,3941.0,Eleftherios Venizelos International Airport,Athens,Greece,ATH,LGAV,37.93640137,23.94449997,308.0,2,E,Europe/Athens,Europe,18
2430,IB,2822,BCN,1218,ATH,3941,Y,0.0,320,1218.0,Barcelona International Airport,Barcelona,Spain,BCN,LEBL,41.2971,2.07846,12.0,1,E,Europe/Madrid,Europe,3941.0,Eleftherios Venizelos International Airport,Athens,Greece,ATH,LGAV,37.93640137,23.94449997,308.0,2,E,Europe/Athens,Europe,94
2431,OA,3776,BCN,1218,ATH,3941,Y,0.0,320 321,1218.0,Barcelona International Airport,Barcelona,Spain,BCN,LEBL,41.2971,2.07846,12.0,1,E,Europe/Madrid,Europe,3941.0,Eleftherios Venizelos International Airport,Athens,Greece,ATH,LGAV,37.93640137,23.94449997,308.0,2,E,Europe/Athens,Europe,94
2436,LH,3320,DUS,345,ATH,3941,Y,0.0,320,345.0,Düsseldorf Airport,Duesseldorf,Germany,DUS,EDDL,51.289501,6.76678,147.0,1,E,Europe/Berlin,Europe,3941.0,Eleftherios Venizelos International Airport,Athens,Greece,ATH,LGAV,37.93640137,23.94449997,308.0,2,E,Europe/Athens,Europe,45
2441,US,5265,MUC,346,ATH,3941,Y,0.0,320,346.0,Munich Airport,Munich,Germany,MUC,EDDM,48.353802,11.7861,1487.0,1,E,Europe/Berlin,Europe,3941.0,Eleftherios Venizelos International Airport,Athens,Greece,ATH,LGAV,37.93640137,23.94449997,308.0,2,E,Europe/Athens,Europe,84
2443,LH,3320,TXL,351,ATH,3941,Y,0.0,320,351.0,Berlin-Tegel Airport,Berlin,Germany,TXL,EDDT,52.5597,13.2877,122.0,1,E,Europe/Berlin,Europe,3941.0,Eleftherios Venizelos International Airport,Athens,Greece,ATH,LGAV,37.93640137,23.94449997,308.0,2,E,Europe/Athens,Europe,43
2449,US,5265,BRU,302,ATH,3941,Y,0.0,321 320,302.0,Brussels Airport,Brussels,Belgium,BRU,EBBR,50.90140152,4.48443985,184.0,1,E,Europe/Brussels,Europe,3941.0,Eleftherios Venizelos International Airport,Athens,Greece,ATH,LGAV,37.93640137,23.94449997,308.0,2,E,Europe/Athens,Europe,52
2452,OA,3776,LYS,1335,ATH,3941,Y,0.0,320,1335.0,Lyon Saint-Exupéry Airport,Lyon,France,LYS,LFLL,45.725556,5.081111,821.0,1,E,Europe/Paris,Europe,3941.0,Eleftherios Venizelos International Airport,Athens,Greece,ATH,LGAV,37.93640137,23.94449997,308.0,2,E,Europe/Athens,Europe,24
2467,OA,3776,CDG,1382,ATH,3941,Y,0.0,321 320,1382.0,Charles de Gaulle International Airport,Paris,France,CDG,LFPG,49.012798,2.55,392.0,1,E,Europe/Paris,Europe,3941.0,Eleftherios Venizelos International Airport,Athens,Greece,ATH,LGAV,37.93640137,23.94449997,308.0,2,E,Europe/Athens,Europe,77
2468,US,5265,CDG,1382,ATH,3941,Y,0.0,321,1382.0,Charles de Gaulle International Airport,Paris,France,CDG,LFPG,49.012798,2.55,392.0,1,E,Europe/Paris,Europe,3941.0,Eleftherios Venizelos International Airport,Athens,Greece,ATH,LGAV,37.93640137,23.94449997,308.0,2,E,Europe/Athens,Europe,77
2470,OA,3776,CFU,1460,ATH,3941,Y,0.0,DH4 320,1460.0,Ioannis Kapodistrias International Airport,Kerkyra/corfu,Greece,CFU,LGKR,39.60189819,19.9116993,6.0,2,E,Europe/Athens,Europe,3941.0,Eleftherios Venizelos International Airport,Athens,Greece,ATH,LGAV,37.93640137,23.94449997,308.0,2,E,Europe/Athens,Europe,1
2476,OA,3776,FCO,1555,ATH,3941,Y,0.0,320,1555.0,Leonardo da VinciFiumicino Airport,Rome,Italy,FCO,LIRF,41.8002778,12.2388889,13.0,1,E,Europe/Rome,Europe,3941.0,Eleftherios Venizelos International Airport,Athens,Greece,ATH,LGAV,37.93640137,23.94449997,308.0,2,E,Europe/Athens,Europe,29
2478,US,5265,FCO,1555,ATH,3941,Y,0.0,320,1555.0,Leonardo da VinciFiumicino Airport,Rome,Italy,FCO,LIRF,41.8002778,12.2388889,13.0,1,E,Europe/Rome,Europe,3941.0,Eleftherios Venizelos International Airport,Athens,Greece,ATH,LGAV,37.93640137,23.94449997,308.0,2,E,Europe/Athens,Europe,29
2485,OA,3776,HER,1452,ATH,3941,Y,0.0,321 DH4 320,1452.0,Heraklion International Nikos Kazantzakis Airport,Heraklion,Greece,HER,LGIR,35.33969879,25.18029976,115.0,2,E,Europe/Athens,Europe,3941.0,Eleftherios Venizelos International Airport,Athens,Greece,ATH,LGAV,37.93640137,23.94449997,308.0,2,E,Europe/Athens,Europe,8
2487,OA,3776,JMK,1468,ATH,3941,Y,0.0,320 DH4,1468.0,Mikonos Airport,Mykonos,Greece,JMK,LGMK,37.43510056,25.34810066,405.0,2,E,Europe/Athens,Europe,3941.0,Eleftherios Venizelos International Airport,Athens,Greece,ATH,LGAV,37.93640137,23.94449997,308.0,2,E,Europe/Athens,Europe,1
2489,OA,3776,JTR,1479,ATH,3941,Y,0.0,321 320 DH4 319,1479.0,Santorini Airport,Thira,Greece,JTR,LGSR,36.39920044,25.47929955,127.0,2,E,Europe/Athens,Europe,3941.0,Eleftherios Venizelos International Airport,Athens,Greece,ATH,LGAV,37.93640137,23.94449997,308.0,2,E,Europe/Athens,Europe,3
2490,US,5265,JTR,1479,ATH,3941,Y,0.0,321,1479.0,Santorini Airport,Thira,Greece,JTR,LGSR,36.39920044,25.47929955,127.0,2,E,Europe/Athens,Europe,3941.0,Eleftherios Venizelos International Airport,Athens,Greece,ATH,LGAV,37.93640137,23.94449997,308.0,2,E,Europe/Athens,Europe,3
2492,OA,3776,KGS,1458,ATH,3941,Y,0.0,320 DH4,1458.0,Kos Airport,Kos,Greece,KGS,LGKO,36.79330063,27.0916996,412.0,2,E,Europe/Athens,Europe,3941.0,Eleftherios Venizelos International Airport,Athens,Greece,ATH,LGAV,37.93640137,23.94449997,308.0,2,E,Europe/Athens,Europe,1
2494,OA,3776,KVA,1462,ATH,3941,Y,0.0,DH4,1462.0,Alexander the Great International Airport,Kavala,Greece,KVA,LGKV,40.91329956,24.61919975,18.0,2,E,Europe/Athens,Europe,3941.0,Eleftherios Venizelos International Airport,Athens,Greece,ATH,LGAV,37.93640137,23.94449997,308.0,2,E,Europe/Athens,Europe,1
2496,AA,24,LHR,507,ATH,3941,Y,0.0,767 320,507.0,London Heathrow Airport,London,United Kingdom,LHR,EGLL,51.4706,-0.461941,83.0,0,E,Europe/London,Europe,3941.0,Eleftherios Venizelos International Airport,Athens,Greece,ATH,LGAV,37.93640137,23.94449997,308.0,2,E,Europe/Athens,Europe,94
2498,OA,3776,LHR,507,ATH,3941,Y,0.0,321,507.0,London Heathrow Airport,London,United Kingdom,LHR,EGLL,51.4706,-0.461941,83.0,0,E,Europe/London,Europe,3941.0,Eleftherios Venizelos International Airport,Athens,Greece,ATH,LGAV,37.93640137,23.94449997,308.0,2,E,Europe/Athens,Europe,94
2499,US,5265,LHR,507,ATH,3941,Y,0.0,321,507.0,London Heathrow Airport,London,United Kingdom,LHR,EGLL,51.4706,-0.461941,83.0,0,E,Europe/London,Europe,3941.0,Eleftherios Venizelos International Airport,Athens,Greece,ATH,LGAV,37.93640137,23.94449997,308.0,2,E,Europe/Athens,Europe,94
2501,OA,3776,MAD,1229,ATH,3941,Y,0.0,320,1229.0,Adolfo Suárez MadridBarajas Airport,Madrid,Spain,MAD,LEMD,40.471926,-3.56264,1998.0,1,E,Europe/Madrid,Europe,3941.0,Eleftherios Venizelos International Airport,Athens,Greece,ATH,LGAV,37.93640137,23.94449997,308.0,2,E,Europe/Athens,Europe,69
2503,OA,3776,MAN,478,ATH,3941,Y,0.0,320,478.0,Manchester Airport,Manchester,United Kingdom,MAN,EGCC,53.35369873,-2.274950027,257.0,0,E,Europe/London,Europe,3941.0,Eleftherios Venizelos International Airport,Athens,Greece,ATH,LGAV,37.93640137,23.94449997,308.0,2,E,Europe/Athens,Europe,21
2506,OA,3776,MXP,1524,ATH,3941,Y,0.0,320,1524.0,Malpensa International Airport,Milano,Italy,MXP,LIMC,45.6306,8.72811,768.0,1,E,Europe/Rome,Europe,3941.0,Eleftherios Venizelos International Airport,Athens,Greece,ATH,LGAV,37.93640137,23.94449997,308.0,2,E,Europe/Athens,Europe,22
2512,OA,3776,RHO,1472,ATH,3941,Y,0.0,320 DH4,1472.0,Diagoras Airport,Rhodos,Greece,RHO,LGRP,36.40539932,28.08620071,17.0,2,E,Europe/Athens,Europe,3941.0,Eleftherios Venizelos International Airport,Athens,Greece,ATH,LGAV,37.93640137,23.94449997,308.0,2,E,Europe/Athens,Europe,3
2515,LH,3320,SKG,1486,ATH,3941,Y,0.0,321,1486.0,Thessaloniki Macedonia International Airport,Thessaloniki,Greece,SKG,LGTS,40.5196991,22.97089958,22.0,2,E,Europe/Athens,Europe,3941.0,Eleftherios Venizelos International Airport,Athens,Greece,ATH,LGAV,37.93640137,23.94449997,308.0,2,E,Europe/Athens,Europe,13
2516,OA,3776,SKG,1486,ATH,3941,Y,0.0,320 321 DH4,1486.0,Thessaloniki Macedonia International Airport,Thessaloniki,Greece,SKG,LGTS,40.5196991,22.97089958,22.0,2,E,Europe/Athens,Europe,3941.0,Eleftherios Venizelos International Airport,Athens,Greece,ATH,LGAV,37.93640137,23.94449997,308.0,2,E,Europe/Athens,Europe,13
2518,US,5265,SKG,1486,ATH,3941,Y,0.0,320,1486.0,Thessaloniki Macedonia International Airport,Thessaloniki,Greece,SKG,LGTS,40.5196991,22.97089958,22.0,2,E,Europe/Athens,Europe,3941.0,Eleftherios Venizelos International Airport,Athens,Greece,ATH,LGAV,37.93640137,23.94449997,308.0,2,E,Europe/Athens,Europe,13
2523,AZ,596,VCE,1551,ATH,3941,Y,0.0,320,1551.0,Venice Marco Polo Airport,Venice,Italy,VCE,LIPZ,45.505299,12.3519,7.0,1,E,Europe/Rome,Europe,3941.0,Eleftherios Venizelos International Airport,Athens,Greece,ATH,LGAV,37.93640137,23.94449997,308.0,2,E,Europe/Athens,Europe,23
2525,OS,491,VIE,1613,ATH,3941,Y,0.0,321 320,1613.0,Vienna International Airport,Vienna,Austria,VIE,LOWW,48.11029816,16.56970024,600.0,1,E,Europe/Vienna,Europe,3941.0,Eleftherios Venizelos International Airport,Athens,Greece,ATH,LGAV,37.93640137,23.94449997,308.0,2,E,Europe/Athens,Europe,127
2553,OA,3776,JKH,1450,ATH,3941,Y,0.0,DH4 319,1450.0,Chios Island National Airport,Chios,Greece,JKH,LGHI,38.34320068,26.1406002,15.0,2,E,Europe/Athens,Europe,3941.0,Eleftherios Venizelos International Airport,Athens,Greece,ATH,LGAV,37.93640137,23.94449997,308.0,2,E,Europe/Athens,Europe,1
2556,OA,3776,SMI,1476,ATH,3941,Y,0.0,DH4,1476.0,Samos Airport,Samos,Greece,SMI,LGSM,37.68999863,26.9116993,19.0,2,E,Europe/Athens,Europe,3941.0,Eleftherios Venizelos International Airport,Athens,Greece,ATH,LGAV,37.93640137,23.94449997,308.0,2,E,Europe/Athens,Europe,1
2560,OA,3776,AXD,1446,ATH,3941,Y,0.0,320 DH4 321,1446.0,Dimokritos Airport,Alexandroupolis,Greece,AXD,LGAL,40.85589981,25.95630074,24.0,2,E,Europe/Athens,Europe,3941.0,Eleftherios Venizelos International Airport,Athens,Greece,ATH,LGAV,37.93640137,23.94449997,308.0,2,E,Europe/Athens,Europe,1
2563,OA,3776,CHQ,1474,ATH,3941,Y,0.0,320 DH4,1474.0,Chania International Airport,Chania,Greece,CHQ,LGSA,35.53170013,24.14970016,490.0,2,E,Europe/Athens,Europe,3941.0,Eleftherios Venizelos International Airport,Athens,Greece,ATH,LGAV,37.93640137,23.94449997,308.0,2,E,Europe/Athens,Europe,3
2565,OA,3776,EFL,1455,ATH,3941,Y,0.0,DH4,1455.0,Kefallinia Airport,Keffallinia,Greece,EFL,LGKF,38.12009811,20.50049973,59.0,2,E,Europe/Athens,Europe,3941.0,Eleftherios Venizelos International Airport,Athens,Greece,ATH,LGAV,37.93640137,23.94449997,308.0,2,E,Europe/Athens,Europe,1
2568,OA,3776,IOA,1451,ATH,3941,Y,0.0,DH4,1451.0,Ioannina Airport,Ioannina,Greece,IOA,LGIO,39.69639969,20.82250023,1558.0,2,E,Europe/Athens,Europe,3941.0,Eleftherios Venizelos International Airport,Athens,Greece,ATH,LGAV,37.93640137,23.94449997,308.0,2,E,Europe/Athens,Europe,1
2586,OA,3776,LXS,1465,ATH,3941,Y,0.0,DH4,1465.0,Limnos Airport,Limnos,Greece,LXS,LGLM,39.917099,25.23629951,14.0,2,E,Europe/Athens,Europe,3941.0,Eleftherios Venizelos International Airport,Athens,Greece,ATH,LGAV,37.93640137,23.94449997,308.0,2,E,Europe/Athens,Europe,1
2588,OA,3776,MJT,1469,ATH,3941,Y,0.0,320 DH4,1469.0,Mytilene International Airport,Mytilini,Greece,MJT,LGMT,39.05670166,26.59830093,60.0,2,E,Europe/Athens,Europe,3941.0,Eleftherios Venizelos International Airport,Athens,Greece,ATH,LGAV,37.93640137,23.94449997,308.0,2,E,Europe/Athens,Europe,1
2593,OA,3776,MRS,1353,ATH,3941,Y,0.0,320,1353.0,Marseille Provence Airport,Marseille,France,MRS,LFML,43.43927192,5.221424103,74.0,1,E,Europe/Paris,Europe,3941.0,Eleftherios Venizelos International Airport,Athens,Greece,ATH,LGAV,37.93640137,23.94449997,308.0,2,E,Europe/Athens,Europe,22
2602,OA,3776,SKU,1482,ATH,3941,Y,0.0,DH4,1482.0,Skiros Airport,Skiros,Greece,SKU,LGSY,38.96760178,24.48719978,44.0,2,E,Europe/Athens,Europe,3941.0,Eleftherios Venizelos International Airport,Athens,Greece,ATH,LGAV,37.93640137,23.94449997,308.0,2,E,Europe/Athens,Europe,1
2638,OA,3776,ATH,3941,CFU,1460,Y,0.0,DH4 320,3941.0,Eleftherios Venizelos International Airport,Athens,Greece,ATH,LGAV,37.93640137,23.94449997,308.0,2,E,Europe/Athens,Europe,1460.0,Ioannis Kapodistrias International Airport,Kerkyra/corfu,Greece,CFU,LGKR,39.60189819,19.9116993,6.0,2,E,Europe/Athens,Europe,33
2682,LX,4559,ZRH,1678,HER,1452,Y,0.0,320 333,1678.0,Zürich Airport,Zurich,Switzerland,ZRH,LSZH,47.464699,8.54917,1416.0,1,E,Europe/Zurich,Europe,1452.0,Heraklion International Nikos Kazantzakis Airport,Heraklion,Greece,HER,LGIR,35.33969879,25.18029976,115.0,2,E,Europe/Athens,Europe,44
2702,LH,3320,MUC,346,HER,1452,Y,0.0,320,346.0,Munich Airport,Munich,Germany,MUC,EDDM,48.353802,11.7861,1487.0,1,E,Europe/Berlin,Europe,1452.0,Heraklion International Nikos Kazantzakis Airport,Heraklion,Greece,HER,LGIR,35.33969879,25.18029976,115.0,2,E,Europe/Athens,Europe,84
2712,SN,1531,BRU,302,HER,1452,Y,0.0,320,302.0,Brussels Airport,Brussels,Belgium,BRU,EBBR,50.90140152,4.48443985,184.0,1,E,Europe/Brussels,Europe,1452.0,Heraklion International Nikos Kazantzakis Airport,Heraklion,Greece,HER,LGIR,35.33969879,25.18029976,115.0,2,E,Europe/Athens,Europe,52
2723,OA,3776,ATH,3941,HER,1452,Y,0.0,321 DH4 320,3941.0,Eleftherios Venizelos International Airport,Athens,Greece,ATH,LGAV,37.93640137,23.94449997,308.0,2,E,Europe/Athens,Europe,1452.0,Heraklion International Nikos Kazantzakis Airport,Heraklion,Greece,HER,LGIR,35.33969879,25.18029976,115.0,2,E,Europe/Athens,Europe,33
2730,LH,3320,FRA,340,HER,1452,Y,0.0,320,340.0,Frankfurt am Main Airport,Frankfurt,Germany,FRA,EDDF,50.033333,8.570556,364.0,1,E,Europe/Berlin,Europe,1452.0,Heraklion International Nikos Kazantzakis Airport,Heraklion,Greece,HER,LGIR,35.33969879,25.18029976,115.0,2,E,Europe/Athens,Europe,90
2755,OS,491,VIE,1613,HER,1452,Y,0.0,320,1613.0,Vienna International Airport,Vienna,Austria,VIE,LOWW,48.11029816,16.56970024,600.0,1,E,Europe/Vienna,Europe,1452.0,Heraklion International Nikos Kazantzakis Airport,Heraklion,Greece,HER,LGIR,35.33969879,25.18029976,115.0,2,E,Europe/Athens,Europe,127
2774,W2,18553,VNO,3959,HER,1452,Y,0.0,320,3959.0,Vilnius International Airport,Vilnius,Lithuania,VNO,EYVI,54.634102,25.285801,648.0,2,E,Europe/Vilnius,Europe,1452.0,Heraklion International Nikos Kazantzakis Airport,Heraklion,Greece,HER,LGIR,35.33969879,25.18029976,115.0,2,E,Europe/Athens,Europe,8
2776,W2,18553,TLL,415,HER,1452,Y,0.0,320,415.0,Lennart Meri Tallinn Airport,Tallinn-ulemiste International,Estonia,TLL,EETN,59.41329956,24.83279991,131.0,2,E,Europe/Tallinn,Europe,1452.0,Heraklion International Nikos Kazantzakis Airport,Heraklion,Greece,HER,LGIR,35.33969879,25.18029976,115.0,2,E,Europe/Athens,Europe,11
2800,OA,3776,ATH,3941,KGS,1458,Y,0.0,320 DH4,3941.0,Eleftherios Venizelos International Airport,Athens,Greece,ATH,LGAV,37.93640137,23.94449997,308.0,2,E,Europe/Athens,Europe,1458.0,Kos Airport,Kos,Greece,KGS,LGKO,36.79330063,27.0916996,412.0,2,E,Europe/Athens,Europe,33
2854,OA,3776,ATH,3941,RHO,1472,Y,0.0,320 DH4,3941.0,Eleftherios Venizelos International Airport,Athens,Greece,ATH,LGAV,37.93640137,23.94449997,308.0,2,E,Europe/Athens,Europe,1472.0,Diagoras Airport,Rhodos,Greece,RHO,LGRP,36.40539932,28.08620071,17.0,2,E,Europe/Athens,Europe,33
2875,OA,3776,SKG,1486,RHO,1472,Y,0.0,320,1486.0,Thessaloniki Macedonia International Airport,Thessaloniki,Greece,SKG,LGTS,40.5196991,22.97089958,22.0,2,E,Europe/Athens,Europe,1472.0,Diagoras Airport,Rhodos,Greece,RHO,LGRP,36.40539932,28.08620071,17.0,2,E,Europe/Athens,Europe,13
2882,OS,491,VIE,1613,RHO,1472,Y,0.0,320,1613.0,Vienna International Airport,Vienna,Austria,VIE,LOWW,48.11029816,16.56970024,600.0,1,E,Europe/Vienna,Europe,1472.0,Diagoras Airport,Rhodos,Greece,RHO,LGRP,36.40539932,28.08620071,17.0,2,E,Europe/Athens,Europe,127
2920,A3,96,ARN,737,SKG,1486,Y,0.0,736,737.0,Stockholm-Arlanda Airport,Stockholm,Sweden,ARN,ESSA,59.65190125,17.91860008,137.0,1,E,Europe/Stockholm,Europe,1486.0,Thessaloniki Macedonia International Airport,Thessaloniki,Greece,SKG,LGTS,40.5196991,22.97089958,22.0,2,E,Europe/Athens,Europe,39
2928,LH,3320,DUS,345,SKG,1486,Y,0.0,321,345.0,Düsseldorf Airport,Duesseldorf,Germany,DUS,EDDL,51.289501,6.76678,147.0,1,E,Europe/Berlin,Europe,1486.0,Thessaloniki Macedonia International Airport,Thessaloniki,Greece,SKG,LGTS,40.5196991,22.97089958,22.0,2,E,Europe/Athens,Europe,45
2933,LH,3320,MUC,346,SKG,1486,Y,0.0,320,346.0,Munich Airport,Munich,Germany,MUC,EDDM,48.353802,11.7861,1487.0,1,E,Europe/Berlin,Europe,1486.0,Thessaloniki Macedonia International Airport,Thessaloniki,Greece,SKG,LGTS,40.5196991,22.97089958,22.0,2,E,Europe/Athens,Europe,84
2934,US,5265,MUC,346,SKG,1486,Y,0.0,320,346.0,Munich Airport,Munich,Germany,MUC,EDDM,48.353802,11.7861,1487.0,1,E,Europe/Berlin,Europe,1486.0,Thessaloniki Macedonia International Airport,Thessaloniki,Greece,SKG,LGTS,40.5196991,22.97089958,22.0,2,E,Europe/Athens,Europe,84
2942,OA,3776,ATH,3941,SKG,1486,Y,0.0,320 321 DH4,3941.0,Eleftherios Venizelos International Airport,Athens,Greece,ATH,LGAV,37.93640137,23.94449997,308.0,2,E,Europe/Athens,Europe,1486.0,Thessaloniki Macedonia International Airport,Thessaloniki,Greece,SKG,LGTS,40.5196991,22.97089958,22.0,2,E,Europe/Athens,Europe,33
2952,LH,3320,FRA,340,SKG,1486,Y,0.0,321,340.0,Frankfurt am Main Airport,Frankfurt,Germany,FRA,EDDF,50.033333,8.570556,364.0,1,E,Europe/Berlin,Europe,1486.0,Thessaloniki Macedonia International Airport,Thessaloniki,Greece,SKG,LGTS,40.5196991,22.97089958,22.0,2,E,Europe/Athens,Europe,90
2953,US,5265,FRA,340,SKG,1486,Y,0.0,321,340.0,Frankfurt am Main Airport,Frankfurt,Germany,FRA,EDDF,50.033333,8.570556,364.0,1,E,Europe/Berlin,Europe,1486.0,Thessaloniki Macedonia International Airport,Thessaloniki,Greece,SKG,LGTS,40.5196991,22.97089958,22.0,2,E,Europe/Athens,Europe,90
2963,OA,3776,RHO,1472,SKG,1486,Y,0.0,320,1472.0,Diagoras Airport,Rhodos,Greece,RHO,LGRP,36.40539932,28.08620071,17.0,2,E,Europe/Athens,Europe,1486.0,Thessaloniki Macedonia International Airport,Thessaloniki,Greece,SKG,LGTS,40.5196991,22.97089958,22.0,2,E,Europe/Athens,Europe,3
2968,LH,3320,STR,350,SKG,1486,Y,0.0,320,350.0,Stuttgart Airport,Stuttgart,Germany,STR,EDDS,48.68989944,9.221960068,1276.0,1,E,Europe/Berlin,Europe,1486.0,Thessaloniki Macedonia International Airport,Thessaloniki,Greece,SKG,LGTS,40.5196991,22.97089958,22.0,2,E,Europe/Athens,Europe,17
2971,OS,491,VIE,1613,SKG,1486,Y,0.0,320 100,1613.0,Vienna International Airport,Vienna,Austria,VIE,LOWW,48.11029816,16.56970024,600.0,1,E,Europe/Vienna,Europe,1486.0,Thessaloniki Macedonia International Airport,Thessaloniki,Greece,SKG,LGTS,40.5196991,22.97089958,22.0,2,E,Europe/Athens,Europe,127
2974,A3,96,CPH,609,SKG,1486,Y,0.0,320,609.0,Copenhagen Kastrup Airport,Copenhagen,Denmark,CPH,EKCH,55.61790085,12.65600014,17.0,1,E,Europe/Copenhagen,Europe,1486.0,Thessaloniki Macedonia International Airport,Thessaloniki,Greece,SKG,LGTS,40.5196991,22.97089958,22.0,2,E,Europe/Athens,Europe,41
2985,OA,3776,CHQ,1474,SKG,1486,Y,0.0,320,1474.0,Chania International Airport,Chania,Greece,CHQ,LGSA,35.53170013,24.14970016,490.0,2,E,Europe/Athens,Europe,1486.0,Thessaloniki Macedonia International Airport,Thessaloniki,Greece,SKG,LGTS,40.5196991,22.97089958,22.0,2,E,Europe/Athens,Europe,3
3007,S7,4329,DME,4029,DUS,345,Y,0.0,738,4029.0,Domodedovo International Airport,Moscow,Russia,DME,UUDD,55.40879822,37.90629959,588.0,3,N,Europe/Moscow,Europe,345.0,Düsseldorf Airport,Duesseldorf,Germany,DUS,EDDL,51.289501,6.76678,147.0,1,E,Europe/Berlin,Europe,19
3025,LH,3320,ARN,737,DUS,345,Y,0.0,736 717 73W 73H,737.0,Stockholm-Arlanda Airport,Stockholm,Sweden,ARN,ESSA,59.65190125,17.91860008,137.0,1,E,Europe/Stockholm,Europe,345.0,Düsseldorf Airport,Duesseldorf,Germany,DUS,EDDL,51.289501,6.76678,147.0,1,E,Europe/Berlin,Europe,39
3027,LH,3320,OSL,644,DUS,345,Y,0.0,73G 73W 738 736,644.0,Oslo Lufthavn,Oslo,Norway,OSL,ENGM,60.121,11.0502,681.0,1,E,Europe/Oslo,Europe,345.0,Düsseldorf Airport,Duesseldorf,Germany,DUS,EDDL,51.289501,6.76678,147.0,1,E,Europe/Berlin,Europe,18
3039,IB,2822,BCN,1218,DUS,345,Y,0.0,320 738 321,1218.0,Barcelona International Airport,Barcelona,Spain,BCN,LEBL,41.2971,2.07846,12.0,1,E,Europe/Madrid,Europe,345.0,Düsseldorf Airport,Duesseldorf,Germany,DUS,EDDL,51.289501,6.76678,147.0,1,E,Europe/Berlin,Europe,94
3045,LH,3320,GRZ,1609,DUS,345,Y,0.0,DH4,1609.0,Graz Airport,Graz,Austria,GRZ,LOWG,46.99110031,15.43959999,1115.0,1,E,Europe/Vienna,Europe,345.0,Düsseldorf Airport,Duesseldorf,Germany,DUS,EDDL,51.289501,6.76678,147.0,1,E,Europe/Berlin,Europe,9
3046,OS,491,GRZ,1609,DUS,345,Y,0.0,DH4,1609.0,Graz Airport,Graz,Austria,GRZ,LOWG,46.99110031,15.43959999,1115.0,1,E,Europe/Vienna,Europe,345.0,Düsseldorf Airport,Duesseldorf,Germany,DUS,EDDL,51.289501,6.76678,147.0,1,E,Europe/Berlin,Europe,9
3053,IG,3463,NAP,1561,DUS,345,Y,0.0,320,1561.0,Naples International Airport,Naples,Italy,NAP,LIRN,40.886002,14.2908,294.0,1,E,Europe/Rome,Europe,345.0,Düsseldorf Airport,Duesseldorf,Germany,DUS,EDDL,51.289501,6.76678,147.0,1,E,Europe/Berlin,Europe,14
3054,LH,3320,NAP,1561,DUS,345,Y,0.0,319 CR9,1561.0,Naples International Airport,Naples,Italy,NAP,LIRN,40.886002,14.2908,294.0,1,E,Europe/Rome,Europe,345.0,Düsseldorf Airport,Duesseldorf,Germany,DUS,EDDL,51.289501,6.76678,147.0,1,E,Europe/Berlin,Europe,14
3057,IG,3463,OLB,1520,DUS,345,Y,0.0,320,1520.0,Olbia Costa Smeralda Airport,Olbia,Italy,OLB,LIEO,40.898701,9.51763,37.0,1,E,Europe/Rome,Europe,345.0,Düsseldorf Airport,Duesseldorf,Germany,DUS,EDDL,51.289501,6.76678,147.0,1,E,Europe/Berlin,Europe,12
3059,AY,2350,SZG,1612,DUS,345,Y,0.0,DH4,1612.0,Salzburg Airport,Salzburg,Austria,SZG,LOWS,47.79330063,13.00430012,1411.0,1,E,Europe/Vienna,Europe,345.0,Düsseldorf Airport,Duesseldorf,Germany,DUS,EDDL,51.289501,6.76678,147.0,1,E,Europe/Berlin,Europe,9
3069,AZ,596,AMS,580,DUS,345,Y,0.0,F70,580.0,Amsterdam Airport Schiphol,Amsterdam,Netherlands,AMS,EHAM,52.308601,4.76389,-11.0,1,E,Europe/Amsterdam,Europe,345.0,Düsseldorf Airport,Duesseldorf,Germany,DUS,EDDL,51.289501,6.76678,147.0,1,E,Europe/Berlin,Europe,95
3070,KL,3090,AMS,580,DUS,345,Y,0.0,F70,580.0,Amsterdam Airport Schiphol,Amsterdam,Netherlands,AMS,EHAM,52.308601,4.76389,-11.0,1,E,Europe/Amsterdam,Europe,345.0,Düsseldorf Airport,Duesseldorf,Germany,DUS,EDDL,51.289501,6.76678,147.0,1,E,Europe/Berlin,Europe,95
3111,LH,3320,ATH,3941,DUS,345,Y,0.0,320,3941.0,Eleftherios Venizelos International Airport,Athens,Greece,ATH,LGAV,37.93640137,23.94449997,308.0,2,E,Europe/Athens,Europe,345.0,Düsseldorf Airport,Duesseldorf,Germany,DUS,EDDL,51.289501,6.76678,147.0,1,E,Europe/Berlin,Europe,33
3115,LH,3320,BHX,469,DUS,345,Y,0.0,CR9,469.0,Birmingham International Airport,Birmingham,United Kingdom,BHX,EGBB,52.45389938,-1.748029947,327.0,0,E,Europe/London,Europe,345.0,Düsseldorf Airport,Duesseldorf,Germany,DUS,EDDL,51.289501,6.76678,147.0,1,E,Europe/Berlin,Europe,7
3124,AZ,596,CDG,1382,DUS,345,Y,0.0,318 320,1382.0,Charles de Gaulle International Airport,Paris,France,CDG,LFPG,49.012798,2.55,392.0,1,E,Europe/Paris,Europe,345.0,Düsseldorf Airport,Duesseldorf,Germany,DUS,EDDL,51.289501,6.76678,147.0,1,E,Europe/Berlin,Europe,77
3132,AY,2350,CTA,1509,DUS,345,Y,0.0,321 738,1509.0,Catania-Fontanarossa Airport,Catania,Italy,CTA,LICC,37.466801,15.0664,39.0,1,E,Europe/Rome,Europe,345.0,Düsseldorf Airport,Duesseldorf,Germany,DUS,EDDL,51.289501,6.76678,147.0,1,E,Europe/Berlin,Europe,25
3134,IG,3463,CTA,1509,DUS,345,Y,0.0,320,1509.0,Catania-Fontanarossa Airport,Catania,Italy,CTA,LICC,37.466801,15.0664,39.0,1,E,Europe/Rome,Europe,345.0,Düsseldorf Airport,Duesseldorf,Germany,DUS,EDDL,51.289501,6.76678,147.0,1,E,Europe/Berlin,Europe,25
3137,LH,3320,DBV,1200,DUS,345,Y,0.0,319,1200.0,Dubrovnik Airport,Dubrovnik,Croatia,DBV,LDDU,42.56140137,18.26819992,527.0,1,E,Europe/Zagreb,Europe,345.0,Düsseldorf Airport,Duesseldorf,Germany,DUS,EDDL,51.289501,6.76678,147.0,1,E,Europe/Berlin,Europe,7
3144,IG,3463,FCO,1555,DUS,345,Y,0.0,320,1555.0,Leonardo da VinciFiumicino Airport,Rome,Italy,FCO,LIRF,41.8002778,12.2388889,13.0,1,E,Europe/Rome,Europe,345.0,Düsseldorf Airport,Duesseldorf,Germany,DUS,EDDL,51.289501,6.76678,147.0,1,E,Europe/Berlin,Europe,29
3146,ET,2220,FRA,340,DUS,345,Y,0.0,319 320 321,340.0,Frankfurt am Main Airport,Frankfurt,Germany,FRA,EDDF,50.033333,8.570556,364.0,1,E,Europe/Berlin,Europe,345.0,Düsseldorf Airport,Duesseldorf,Germany,DUS,EDDL,51.289501,6.76678,147.0,1,E,Europe/Berlin,Europe,90
3149,AB,214,HEL,421,DUS,345,Y,0.0,E90,421.0,Helsinki Vantaa Airport,Helsinki,Finland,HEL,EFHK,60.31719971,24.9633007,179.0,2,E,Europe/Helsinki,Europe,345.0,Düsseldorf Airport,Duesseldorf,Germany,DUS,EDDL,51.289501,6.76678,147.0,1,E,Europe/Berlin,Europe,48
3150,AY,2350,HEL,421,DUS,345,Y,0.0,E90,421.0,Helsinki Vantaa Airport,Helsinki,Finland,HEL,EFHK,60.31719971,24.9633007,179.0,2,E,Europe/Helsinki,Europe,345.0,Düsseldorf Airport,Duesseldorf,Germany,DUS,EDDL,51.289501,6.76678,147.0,1,E,Europe/Berlin,Europe,48
3166,AA,24,LHR,507,DUS,345,Y,0.0,319 320,507.0,London Heathrow Airport,London,United Kingdom,LHR,EGLL,51.4706,-0.461941,83.0,0,E,Europe/London,Europe,345.0,Düsseldorf Airport,Duesseldorf,Germany,DUS,EDDL,51.289501,6.76678,147.0,1,E,Europe/Berlin,Europe,94
3172,IB,2822,MAD,1229,DUS,345,Y,0.0,32S,1229.0,Adolfo Suárez MadridBarajas Airport,Madrid,Spain,MAD,LEMD,40.471926,-3.56264,1998.0,1,E,Europe/Madrid,Europe,345.0,Düsseldorf Airport,Duesseldorf,Germany,DUS,EDDL,51.289501,6.76678,147.0,1,E,Europe/Berlin,Europe,69
3174,LH,3320,MAN,478,DUS,345,Y,0.0,319 CR9,478.0,Manchester Airport,Manchester,United Kingdom,MAN,EGCC,53.35369873,-2.274950027,257.0,0,E,Europe/London,Europe,345.0,Düsseldorf Airport,Duesseldorf,Germany,DUS,EDDL,51.289501,6.76678,147.0,1,E,Europe/Berlin,Europe,21
3194,LH,3320,SKG,1486,DUS,345,Y,0.0,321,1486.0,Thessaloniki Macedonia International Airport,Thessaloniki,Greece,SKG,LGTS,40.5196991,22.97089958,22.0,2,E,Europe/Athens,Europe,345.0,Düsseldorf Airport,Duesseldorf,Germany,DUS,EDDL,51.289501,6.76678,147.0,1,E,Europe/Berlin,Europe,13
3196,LH,3320,SPU,1206,DUS,345,Y,0.0,319,1206.0,Split Airport,Split,Croatia,SPU,LDSP,43.53889847,16.29800034,79.0,1,E,Europe/Zagreb,Europe,345.0,Düsseldorf Airport,Duesseldorf,Germany,DUS,EDDL,51.289501,6.76678,147.0,1,E,Europe/Berlin,Europe,4
3205,IG,3463,VCE,1551,DUS,345,Y,0.0,320,1551.0,Venice Marco Polo Airport,Venice,Italy,VCE,LIPZ,45.505299,12.3519,7.0,1,E,Europe/Rome,Europe,345.0,Düsseldorf Airport,Duesseldorf,Germany,DUS,EDDL,51.289501,6.76678,147.0,1,E,Europe/Berlin,Europe,23
3208,OS,491,VIE,1613,DUS,345,Y,0.0,320 319 321 100 CR9,1613.0,Vienna International Airport,Vienna,Austria,VIE,LOWW,48.11029816,16.56970024,600.0,1,E,Europe/Vienna,Europe,345.0,Düsseldorf Airport,Duesseldorf,Germany,DUS,EDDL,51.289501,6.76678,147.0,1,E,Europe/Berlin,Europe,127
3210,LH,3320,WAW,679,DUS,345,Y,0.0,E75,679.0,Warsaw Chopin Airport,Warsaw,Poland,WAW,EPWA,52.16569901,20.96710014,362.0,1,E,Europe/Warsaw,Europe,345.0,Düsseldorf Airport,Duesseldorf,Germany,DUS,EDDL,51.289501,6.76678,147.0,1,E,Europe/Berlin,Europe,13
3219,AY,2350,CPH,609,DUS,345,Y,0.0,319 320 DH4 738,609.0,Copenhagen Kastrup Airport,Copenhagen,Denmark,CPH,EKCH,55.61790085,12.65600014,17.0,1,E,Europe/Copenhagen,Europe,345.0,Düsseldorf Airport,Duesseldorf,Germany,DUS,EDDL,51.289501,6.76678,147.0,1,E,Europe/Berlin,Europe,41
3220,LH,3320,CPH,609,DUS,345,Y,0.0,CR9 CR2,609.0,Copenhagen Kastrup Airport,Copenhagen,Denmark,CPH,EKCH,55.61790085,12.65600014,17.0,1,E,Europe/Copenhagen,Europe,345.0,Düsseldorf Airport,Duesseldorf,Germany,DUS,EDDL,51.289501,6.76678,147.0,1,E,Europe/Berlin,Europe,41
3222,AB,214,RIX,3953,DUS,345,Y,0.0,DH4,3953.0,Riga International Airport,Riga,Latvia,RIX,EVRA,56.92359924,23.97109985,36.0,2,E,Europe/Riga,Europe,345.0,Düsseldorf Airport,Duesseldorf,Germany,DUS,EDDL,51.289501,6.76678,147.0,1,E,Europe/Berlin,Europe,18
3231,LH,3320,OTP,1657,DUS,345,Y,0.0,CR9,1657.0,Henri Coand? International Airport,Bucharest,Romania,OTP,LROP,44.5711111,26.085,314.0,2,E,Europe/Bucharest,Europe,345.0,Düsseldorf Airport,Duesseldorf,Germany,DUS,EDDL,51.289501,6.76678,147.0,1,E,Europe/Berlin,Europe,18
3242,AF,137,NTE,1418,DUS,345,Y,0.0,ER4,1418.0,Nantes Atlantique Airport,Nantes,France,NTE,LFRS,47.15319824,-1.610730052,90.0,1,E,Europe/Paris,Europe,345.0,Düsseldorf Airport,Duesseldorf,Germany,DUS,EDDL,51.289501,6.76678,147.0,1,E,Europe/Berlin,Europe,15
3245,AY,2350,FLR,1563,DUS,345,Y,0.0,DH4,1563.0,Peretola Airport,Florence,Italy,FLR,LIRQ,43.810001,11.2051,142.0,1,E,Europe/Rome,Europe,345.0,Düsseldorf Airport,Duesseldorf,Germany,DUS,EDDL,51.289501,6.76678,147.0,1,E,Europe/Berlin,Europe,18
3246,IG,3463,FLR,1563,DUS,345,Y,0.0,320,1563.0,Peretola Airport,Florence,Italy,FLR,LIRQ,43.810001,11.2051,142.0,1,E,Europe/Rome,Europe,345.0,Düsseldorf Airport,Duesseldorf,Germany,DUS,EDDL,51.289501,6.76678,147.0,1,E,Europe/Berlin,Europe,18
3247,LH,3320,GOT,687,DUS,345,Y,0.0,CR9,687.0,Gothenburg-Landvetter Airport,Gothenborg,Sweden,GOT,ESGG,57.66279984,12.27980042,506.0,1,E,Europe/Stockholm,Europe,345.0,Düsseldorf Airport,Duesseldorf,Germany,DUS,EDDL,51.289501,6.76678,147.0,1,E,Europe/Berlin,Europe,18
3248,LH,3320,GLA,534,DUS,345,Y,0.0,CR9,534.0,Glasgow International Airport,Glasgow,United Kingdom,GLA,EGPF,55.87189865,-4.433060169,26.0,0,E,Europe/London,Europe,345.0,Düsseldorf Airport,Duesseldorf,Germany,DUS,EDDL,51.289501,6.76678,147.0,1,E,Europe/Berlin,Europe,19
3251,LG,3329,LUX,629,DUS,345,Y,0.0,CNJ,629.0,Luxembourg-Findel International Airport,Luxemburg,Luxembourg,LUX,ELLX,49.6233333,6.2044444,1234.0,1,E,Europe/Luxembourg,Europe,345.0,Düsseldorf Airport,Duesseldorf,Germany,DUS,EDDL,51.289501,6.76678,147.0,1,E,Europe/Berlin,Europe,11
3252,LH,3320,NCL,521,DUS,345,Y,0.0,CR9,521.0,Newcastle Airport,Newcastle,United Kingdom,NCL,EGNT,55.03749847,-1.691669941,266.0,0,E,Europe/London,Europe,345.0,Düsseldorf Airport,Duesseldorf,Germany,DUS,EDDL,51.289501,6.76678,147.0,1,E,Europe/Berlin,Europe,9
3268,LH,3320,LNZ,1611,DUS,345,Y,0.0,DH4,1611.0,Linz Hörsching Airport,Linz,Austria,LNZ,LOWL,48.2332,14.1875,980.0,1,E,Europe/Vienna,Europe,345.0,Düsseldorf Airport,Duesseldorf,Germany,DUS,EDDL,51.289501,6.76678,147.0,1,E,Europe/Berlin,Europe,5
3269,OS,491,LNZ,1611,DUS,345,Y,0.0,DH4,1611.0,Linz Hörsching Airport,Linz,Austria,LNZ,LOWL,48.2332,14.1875,980.0,1,E,Europe/Vienna,Europe,345.0,Düsseldorf Airport,Duesseldorf,Germany,DUS,EDDL,51.289501,6.76678,147.0,1,E,Europe/Berlin,Europe,5
3272,LH,3320,MLA,1606,DUS,345,Y,0.0,319 320,1606.0,Malta International Airport,Malta,Malta,MLA,LMML,35.857498,14.4775,300.0,1,E,Europe/Malta,Europe,345.0,Düsseldorf Airport,Duesseldorf,Germany,DUS,EDDL,51.289501,6.76678,147.0,1,E,Europe/Berlin,Europe,11
3281,BA,1355,BLL,608,DUS,345,Y,0.0,J31,608.0,Billund Airport,Billund,Denmark,BLL,EKBI,55.74029922,9.151780128,247.0,1,E,Europe/Copenhagen,Europe,345.0,Düsseldorf Airport,Duesseldorf,Germany,DUS,EDDL,51.289501,6.76678,147.0,1,E,Europe/Berlin,Europe,12
3291,AB,214,DME,4029,FRA,340,Y,0.0,319,4029.0,Domodedovo International Airport,Moscow,Russia,DME,UUDD,55.40879822,37.90629959,588.0,3,N,Europe/Moscow,Europe,340.0,Frankfurt am Main Airport,Frankfurt,Germany,FRA,EDDF,50.033333,8.570556,364.0,1,E,Europe/Berlin,Europe,19
3304,ET,2220,GVA,1665,FRA,340,Y,0.0,735,1665.0,Geneva Cointrin International Airport,Geneva,Switzerland,GVA,LSGG,46.23809814,6.108950138,1411.0,1,E,Europe/Paris,Europe,340.0,Frankfurt am Main Airport,Frankfurt,Germany,FRA,EDDF,50.033333,8.570556,364.0,1,E,Europe/Berlin,Europe,18
3307,LX,4559,GVA,1665,FRA,340,Y,0.0,735 CR7 E90,1665.0,Geneva Cointrin International Airport,Geneva,Switzerland,GVA,LSGG,46.23809814,6.108950138,1411.0,1,E,Europe/Paris,Europe,340.0,Frankfurt am Main Airport,Frankfurt,Germany,FRA,EDDF,50.033333,8.570556,364.0,1,E,Europe/Berlin,Europe,18
3308,AC,330,LCA,1197,FRA,340,Y,0.0,319 321,1197.0,Larnaca International Airport,Larnaca,Cyprus,LCA,LCLK,34.87509918,33.62490082,8.0,2,E,Asia/Nicosia,Europe,340.0,Frankfurt am Main Airport,Frankfurt,Germany,FRA,EDDF,50.033333,8.570556,364.0,1,E,Europe/Berlin,Europe,8
3315,ET,2220,ZRH,1678,FRA,340,Y,0.0,319,1678.0,Zürich Airport,Zurich,Switzerland,ZRH,LSZH,47.464699,8.54917,1416.0,1,E,Europe/Zurich,Europe,340.0,Frankfurt am Main Airport,Frankfurt,Germany,FRA,EDDF,50.033333,8.570556,364.0,1,E,Europe/Berlin,Europe,44
3318,ET,2220,ARN,737,FRA,340,Y,0.0,321 32A,737.0,Stockholm-Arlanda Airport,Stockholm,Sweden,ARN,ESSA,59.65190125,17.91860008,137.0,1,E,Europe/Stockholm,Europe,340.0,Frankfurt am Main Airport,Frankfurt,Germany,FRA,EDDF,50.033333,8.570556,364.0,1,E,Europe/Berlin,Europe,39
3321,ET,2220,OSL,644,FRA,340,Y,0.0,319 320 32A,644.0,Oslo Lufthavn,Oslo,Norway,OSL,ENGM,60.121,11.0502,681.0,1,E,Europe/Oslo,Europe,340.0,Frankfurt am Main Airport,Frankfurt,Germany,FRA,EDDF,50.033333,8.570556,364.0,1,E,Europe/Berlin,Europe,18
3331,ET,2220,BCN,1218,FRA,340,Y,0.0,321,1218.0,Barcelona International Airport,Barcelona,Spain,BCN,LEBL,41.2971,2.07846,12.0,1,E,Europe/Madrid,Europe,340.0,Frankfurt am Main Airport,Frankfurt,Germany,FRA,EDDF,50.033333,8.570556,364.0,1,E,Europe/Berlin,Europe,94
3332,IB,2822,BCN,1218,FRA,340,Y,0.0,320,1218.0,Barcelona International Airport,Barcelona,Spain,BCN,LEBL,41.2971,2.07846,12.0,1,E,Europe/Madrid,Europe,340.0,Frankfurt am Main Airport,Frankfurt,Germany,FRA,EDDF,50.033333,8.570556,364.0,1,E,Europe/Berlin,Europe,94
3356,ET,2220,DUS,345,FRA,340,Y,0.0,319 320 321,345.0,Düsseldorf Airport,Duesseldorf,Germany,DUS,EDDL,51.289501,6.76678,147.0,1,E,Europe/Berlin,Europe,340.0,Frankfurt am Main Airport,Frankfurt,Germany,FRA,EDDF,50.033333,8.570556,364.0,1,E,Europe/Berlin,Europe,45
3358,LH,3320,FDH,382,FRA,340,Y,0.0,CR7,382.0,Friedrichshafen Airport,Friedrichshafen,Germany,FDH,EDNY,47.67129898,9.511489868,1367.0,1,E,Europe/Berlin,Europe,340.0,Frankfurt am Main Airport,Frankfurt,Germany,FRA,EDDF,50.033333,8.570556,364.0,1,E,Europe/Berlin,Europe,1
3360,OS,491,GRZ,1609,FRA,340,Y,0.0,E90 733,1609.0,Graz Airport,Graz,Austria,GRZ,LOWG,46.99110031,15.43959999,1115.0,1,E,Europe/Vienna,Europe,340.0,Frankfurt am Main Airport,Frankfurt,Germany,FRA,EDDF,50.033333,8.570556,364.0,1,E,Europe/Berlin,Europe,9
3364,ET,2220,MUC,346,FRA,340,Y,0.0,320 319,346.0,Munich Airport,Munich,Germany,MUC,EDDM,48.353802,11.7861,1487.0,1,E,Europe/Berlin,Europe,340.0,Frankfurt am Main Airport,Frankfurt,Germany,FRA,EDDF,50.033333,8.570556,364.0,1,E,Europe/Berlin,Europe,84
3366,AC,330,NAP,1561,FRA,340,Y,0.0,320 321 319,1561.0,Naples International Airport,Naples,Italy,NAP,LIRN,40.886002,14.2908,294.0,1,E,Europe/Rome,Europe,340.0,Frankfurt am Main Airport,Frankfurt,Germany,FRA,EDDF,50.033333,8.570556,364.0,1,E,Europe/Berlin,Europe,14
3368,LH,3320,OLB,1520,FRA,340,Y,0.0,E90,1520.0,Olbia Costa Smeralda Airport,Olbia,Italy,OLB,LIEO,40.898701,9.51763,37.0,1,E,Europe/Rome,Europe,340.0,Frankfurt am Main Airport,Frankfurt,Germany,FRA,EDDF,50.033333,8.570556,364.0,1,E,Europe/Berlin,Europe,12
3369,LH,3320,SZG,1612,FRA,340,Y,0.0,100,1612.0,Salzburg Airport,Salzburg,Austria,SZG,LOWS,47.79330063,13.00430012,1411.0,1,E,Europe/Vienna,Europe,340.0,Frankfurt am Main Airport,Frankfurt,Germany,FRA,EDDF,50.033333,8.570556,364.0,1,E,Europe/Berlin,Europe,9
3370,OS,491,SZG,1612,FRA,340,Y,0.0,100,1612.0,Salzburg Airport,Salzburg,Austria,SZG,LOWS,47.79330063,13.00430012,1411.0,1,E,Europe/Vienna,Europe,340.0,Frankfurt am Main Airport,Frankfurt,Germany,FRA,EDDF,50.033333,8.570556,364.0,1,E,Europe/Berlin,Europe,9
3372,ET,2220,TXL,351,FRA,340,Y,0.0,321 320 32A,351.0,Berlin-Tegel Airport,Berlin,Germany,TXL,EDDT,52.5597,13.2877,122.0,1,E,Europe/Berlin,Europe,340.0,Frankfurt am Main Airport,Frankfurt,Germany,FRA,EDDF,50.033333,8.570556,364.0,1,E,Europe/Berlin,Europe,43
3375,LH,3320,ZAD,1209,FRA,340,Y,0.0,319,1209.0,Zadar Airport,Zadar,Croatia,ZAD,LDZD,44.108299,15.3467,289.0,1,E,Europe/Zagreb,Europe,340.0,Frankfurt am Main Airport,Frankfurt,Germany,FRA,EDDF,50.033333,8.570556,364.0,1,E,Europe/Berlin,Europe,2
3384,ET,2220,AMS,580,FRA,340,Y,0.0,32A 319,580.0,Amsterdam Airport Schiphol,Amsterdam,Netherlands,AMS,EHAM,52.308601,4.76389,-11.0,1,E,Europe/Amsterdam,Europe,340.0,Frankfurt am Main Airport,Frankfurt,Germany,FRA,EDDF,50.033333,8.570556,364.0,1,E,Europe/Berlin,Europe,95
3385,KL,3090,AMS,580,FRA,340,Y,0.0,EMJ F70,580.0,Amsterdam Airport Schiphol,Amsterdam,Netherlands,AMS,EHAM,52.308601,4.76389,-11.0,1,E,Europe/Amsterdam,Europe,340.0,Frankfurt am Main Airport,Frankfurt,Germany,FRA,EDDF,50.033333,8.570556,364.0,1,E,Europe/Berlin,Europe,95
3387,MU,1758,AMS,580,FRA,340,Y,0.0,EMJ F70,580.0,Amsterdam Airport Schiphol,Amsterdam,Netherlands,AMS,EHAM,52.308601,4.76389,-11.0,1,E,Europe/Amsterdam,Europe,340.0,Frankfurt am Main Airport,Frankfurt,Germany,FRA,EDDF,50.033333,8.570556,364.0,1,E,Europe/Berlin,Europe,95
3389,ET,2220,BRU,302,FRA,340,Y,0.0,319 320 733 32A,302.0,Brussels Airport,Brussels,Belgium,BRU,EBBR,50.90140152,4.48443985,184.0,1,E,Europe/Brussels,Europe,340.0,Frankfurt am Main Airport,Frankfurt,Germany,FRA,EDDF,50.033333,8.570556,364.0,1,E,Europe/Berlin,Europe,52
3391,SN,1531,BRU,302,FRA,340,Y,0.0,321 735 E90 733 CR7 319 320 32A,302.0,Brussels Airport,Brussels,Belgium,BRU,EBBR,50.90140152,4.48443985,184.0,1,E,Europe/Brussels,Europe,340.0,Frankfurt am Main Airport,Frankfurt,Germany,FRA,EDDF,50.033333,8.570556,364.0,1,E,Europe/Berlin,Europe,52
3394,ET,2220,LYS,1335,FRA,340,Y,0.0,733 32A 321,1335.0,Lyon Saint-Exupéry Airport,Lyon,France,LYS,LFLL,45.725556,5.081111,821.0,1,E,Europe/Paris,Europe,340.0,Frankfurt am Main Airport,Frankfurt,Germany,FRA,EDDF,50.033333,8.570556,364.0,1,E,Europe/Berlin,Europe,24
3404,ET,2220,TLS,1273,FRA,340,Y,0.0,735,1273.0,Toulouse-Blagnac Airport,Toulouse,France,TLS,LFBO,43.629101,1.36382,499.0,1,E,Europe/Paris,Europe,340.0,Frankfurt am Main Airport,Frankfurt,Germany,FRA,EDDF,50.033333,8.570556,364.0,1,E,Europe/Berlin,Europe,16
3480,LX,4559,BSL,1423,FRA,340,Y,0.0,CR7,1423.0,EuroAirport Basel-Mulhouse-Freiburg Airport,Mulhouse,France,BSL,LFSB,47.59,7.5291667,885.0,1,E,Europe/Paris,Europe,340.0,Frankfurt am Main Airport,Frankfurt,Germany,FRA,EDDF,50.033333,8.570556,364.0,1,E,Europe/Berlin,Europe,19
3484,LH,3320,PRN,1742,FRA,340,Y,0.0,319,1742.0,Pritina International Airport,Pristina,Serbia,PRN,BKPR,42.5728,21.035801,1789.0,1,E,Europe/Belgrade,Europe,340.0,Frankfurt am Main Airport,Frankfurt,Germany,FRA,EDDF,50.033333,8.570556,364.0,1,E,Europe/Berlin,Europe,4
3495,LH,3320,BGO,636,FRA,340,Y,0.0,735 E90,636.0,Bergen Airport Flesland,Bergen,Norway,BGO,ENBR,60.29339981,5.218140125,170.0,1,E,Europe/Oslo,Europe,340.0,Frankfurt am Main Airport,Frankfurt,Germany,FRA,EDDF,50.033333,8.570556,364.0,1,E,Europe/Berlin,Europe,8
3496,SK,4319,BGO,636,FRA,340,Y,0.0,735 E90,636.0,Bergen Airport Flesland,Bergen,Norway,BGO,ENBR,60.29339981,5.218140125,170.0,1,E,Europe/Oslo,Europe,340.0,Frankfurt am Main Airport,Frankfurt,Germany,FRA,EDDF,50.033333,8.570556,364.0,1,E,Europe/Berlin,Europe,8
3501,ET,2220,BUD,1489,FRA,340,Y,0.0,321 32A,1489.0,Budapest Liszt Ferenc International Airport,Budapest,Hungary,BUD,LHBP,47.42976,19.261093,495.0,1,E,Europe/Budapest,Europe,340.0,Frankfurt am Main Airport,Frankfurt,Germany,FRA,EDDF,50.033333,8.570556,364.0,1,E,Europe/Berlin,Europe,6
3503,SK,4319,BUD,1489,FRA,340,Y,0.0,320 321,1489.0,Budapest Liszt Ferenc International Airport,Budapest,Hungary,BUD,LHBP,47.42976,19.261093,495.0,1,E,Europe/Budapest,Europe,340.0,Frankfurt am Main Airport,Frankfurt,Germany,FRA,EDDF,50.033333,8.570556,364.0,1,E,Europe/Berlin,Europe,6
3510,IG,3463,CTA,1509,FRA,340,Y,0.0,320,1509.0,Catania-Fontanarossa Airport,Catania,Italy,CTA,LICC,37.466801,15.0664,39.0,1,E,Europe/Rome,Europe,340.0,Frankfurt am Main Airport,Frankfurt,Germany,FRA,EDDF,50.033333,8.570556,364.0,1,E,Europe/Berlin,Europe,25
3511,LH,3320,DBV,1200,FRA,340,Y,0.0,319 320 735,1200.0,Dubrovnik Airport,Dubrovnik,Croatia,DBV,LDDU,42.56140137,18.26819992,527.0,1,E,Europe/Zagreb,Europe,340.0,Frankfurt am Main Airport,Frankfurt,Germany,FRA,EDDF,50.033333,8.570556,364.0,1,E,Europe/Berlin,Europe,7
3517,TP,4869,FAO,1626,FRA,340,Y,0.0,32A 321 320,1626.0,Faro Airport,Faro,Portugal,FAO,LPFR,37.01440048,-7.965909958,24.0,0,E,Europe/Lisbon,Europe,340.0,Frankfurt am Main Airport,Frankfurt,Germany,FRA,EDDF,50.033333,8.570556,364.0,1,E,Europe/Berlin,Europe,5
3524,AB,214,HEL,421,FRA,340,Y,0.0,E90,421.0,Helsinki Vantaa Airport,Helsinki,Finland,HEL,EFHK,60.31719971,24.9633007,179.0,2,E,Europe/Helsinki,Europe,340.0,Frankfurt am Main Airport,Frankfurt,Germany,FRA,EDDF,50.033333,8.570556,364.0,1,E,Europe/Berlin,Europe,48
3525,AY,2350,HEL,421,FRA,340,Y,0.0,E90,421.0,Helsinki Vantaa Airport,Helsinki,Finland,HEL,EFHK,60.31719971,24.9633007,179.0,2,E,Europe/Helsinki,Europe,340.0,Frankfurt am Main Airport,Frankfurt,Germany,FRA,EDDF,50.033333,8.570556,364.0,1,E,Europe/Berlin,Europe,48
3526,ET,2220,HEL,421,FRA,340,Y,0.0,32A 321,421.0,Helsinki Vantaa Airport,Helsinki,Finland,HEL,EFHK,60.31719971,24.9633007,179.0,2,E,Europe/Helsinki,Europe,340.0,Frankfurt am Main Airport,Frankfurt,Germany,FRA,EDDF,50.033333,8.570556,364.0,1,E,Europe/Berlin,Europe,48
3528,SK,4319,HEL,421,FRA,340,Y,0.0,321 32A 320,421.0,Helsinki Vantaa Airport,Helsinki,Finland,HEL,EFHK,60.31719971,24.9633007,179.0,2,E,Europe/Helsinki,Europe,340.0,Frankfurt am Main Airport,Frankfurt,Germany,FRA,EDDF,50.033333,8.570556,364.0,1,E,Europe/Berlin,Europe,48
3531,LH,3320,HER,1452,FRA,340,Y,0.0,320,1452.0,Heraklion International Nikos Kazantzakis Airport,Heraklion,Greece,HER,LGIR,35.33969879,25.18029976,115.0,2,E,Europe/Athens,Europe,340.0,Frankfurt am Main Airport,Frankfurt,Germany,FRA,EDDF,50.033333,8.570556,364.0,1,E,Europe/Berlin,Europe,8
3539,LO,3210,KRK,669,FRA,340,Y,0.0,735 733 321 32A 319,669.0,Kraków John Paul II International Airport,Krakow,Poland,KRK,EPKK,50.077702,19.7848,791.0,1,E,Europe/Warsaw,Europe,340.0,Frankfurt am Main Airport,Frankfurt,Germany,FRA,EDDF,50.033333,8.570556,364.0,1,E,Europe/Berlin,Europe,5
3540,LH,3320,KTW,671,FRA,340,Y,0.0,735 CR7 733,671.0,Katowice International Airport,Katowice,Poland,KTW,EPKT,50.4743,19.08,995.0,1,E,Europe/Warsaw,Europe,340.0,Frankfurt am Main Airport,Frankfurt,Germany,FRA,EDDF,50.033333,8.570556,364.0,1,E,Europe/Berlin,Europe,2
3541,LO,3210,KTW,671,FRA,340,Y,0.0,735 CR7 733,671.0,Katowice International Airport,Katowice,Poland,KTW,EPKT,50.4743,19.08,995.0,1,E,Europe/Warsaw,Europe,340.0,Frankfurt am Main Airport,Frankfurt,Germany,FRA,EDDF,50.033333,8.570556,364.0,1,E,Europe/Berlin,Europe,2
3543,AA,24,LHR,507,FRA,340,Y,0.0,319 320,507.0,London Heathrow Airport,London,United Kingdom,LHR,EGLL,51.4706,-0.461941,83.0,0,E,Europe/London,Europe,340.0,Frankfurt am Main Airport,Frankfurt,Germany,FRA,EDDF,50.033333,8.570556,364.0,1,E,Europe/Berlin,Europe,94
3544,AB,214,LHR,507,FRA,340,Y,0.0,767 319 320,507.0,London Heathrow Airport,London,United Kingdom,LHR,EGLL,51.4706,-0.461941,83.0,0,E,Europe/London,Europe,340.0,Frankfurt am Main Airport,Frankfurt,Germany,FRA,EDDF,50.033333,8.570556,364.0,1,E,Europe/Berlin,Europe,94
3547,AZ,596,LIN,1529,FRA,340,Y,0.0,E75,1529.0,Milano Linate Airport,Milan,Italy,LIN,LIML,45.445099,9.27674,353.0,1,E,Europe/Rome,Europe,340.0,Frankfurt am Main Airport,Frankfurt,Germany,FRA,EDDF,50.033333,8.570556,364.0,1,E,Europe/Berlin,Europe,17
3550,SN,1531,LIN,1529,FRA,340,Y,0.0,320 319,1529.0,Milano Linate Airport,Milan,Italy,LIN,LIML,45.445099,9.27674,353.0,1,E,Europe/Rome,Europe,340.0,Frankfurt am Main Airport,Frankfurt,Germany,FRA,EDDF,50.033333,8.570556,364.0,1,E,Europe/Berlin,Europe,17
3551,ET,2220,LIS,1638,FRA,340,Y,0.0,321,1638.0,Humberto Delgado Airport (Lisbon Portela Airport),Lisbon,Portugal,LIS,LPPT,38.7813,-9.13592,374.0,0,E,Europe/Lisbon,Europe,340.0,Frankfurt am Main Airport,Frankfurt,Germany,FRA,EDDF,50.033333,8.570556,364.0,1,E,Europe/Berlin,Europe,58
3553,S4,4304,LIS,1638,FRA,340,Y,0.0,319 321,1638.0,Humberto Delgado Airport (Lisbon Portela Airport),Lisbon,Portugal,LIS,LPPT,38.7813,-9.13592,374.0,0,E,Europe/Lisbon,Europe,340.0,Frankfurt am Main Airport,Frankfurt,Germany,FRA,EDDF,50.033333,8.570556,364.0,1,E,Europe/Berlin,Europe,58
3555,AB,214,MAD,1229,FRA,340,Y,0.0,32A,1229.0,Adolfo Suárez MadridBarajas Airport,Madrid,Spain,MAD,LEMD,40.471926,-3.56264,1998.0,1,E,Europe/Madrid,Europe,340.0,Frankfurt am Main Airport,Frankfurt,Germany,FRA,EDDF,50.033333,8.570556,364.0,1,E,Europe/Berlin,Europe,69
3556,AY,2350,MAD,1229,FRA,340,Y,0.0,32A,1229.0,Adolfo Suárez MadridBarajas Airport,Madrid,Spain,MAD,LEMD,40.471926,-3.56264,1998.0,1,E,Europe/Madrid,Europe,340.0,Frankfurt am Main Airport,Frankfurt,Germany,FRA,EDDF,50.033333,8.570556,364.0,1,E,Europe/Berlin,Europe,69
3557,ET,2220,MAD,1229,FRA,340,Y,0.0,321 320,1229.0,Adolfo Suárez MadridBarajas Airport,Madrid,Spain,MAD,LEMD,40.471926,-3.56264,1998.0,1,E,Europe/Madrid,Europe,340.0,Frankfurt am Main Airport,Frankfurt,Germany,FRA,EDDF,50.033333,8.570556,364.0,1,E,Europe/Berlin,Europe,69
3558,IB,2822,MAD,1229,FRA,340,Y,0.0,32S,1229.0,Adolfo Suárez MadridBarajas Airport,Madrid,Spain,MAD,LEMD,40.471926,-3.56264,1998.0,1,E,Europe/Madrid,Europe,340.0,Frankfurt am Main Airport,Frankfurt,Germany,FRA,EDDF,50.033333,8.570556,364.0,1,E,Europe/Berlin,Europe,69
3564,ET,2220,MXP,1524,FRA,340,Y,0.0,321 319 32A 320,1524.0,Malpensa International Airport,Milano,Italy,MXP,LIMC,45.6306,8.72811,768.0,1,E,Europe/Rome,Europe,340.0,Frankfurt am Main Airport,Frankfurt,Germany,FRA,EDDF,50.033333,8.570556,364.0,1,E,Europe/Berlin,Europe,22
3568,LH,3320,PMO,1512,FRA,340,Y,0.0,E90,1512.0,FalconeBorsellino Airport,Palermo,Italy,PMO,LICJ,38.175999,13.091,65.0,1,E,Europe/Rome,Europe,340.0,Frankfurt am Main Airport,Frankfurt,Germany,FRA,EDDF,50.033333,8.570556,364.0,1,E,Europe/Berlin,Europe,13
3570,LO,3210,POZ,674,FRA,340,Y,0.0,CR7,674.0,Pozna?-?awica Airport,Poznan,Poland,POZ,EPPO,52.42100143,16.82629967,308.0,1,E,Europe/Warsaw,Europe,340.0,Frankfurt am Main Airport,Frankfurt,Germany,FRA,EDDF,50.033333,8.570556,364.0,1,E,Europe/Berlin,Europe,2
3571,ET,2220,PRG,1587,FRA,340,Y,0.0,320 321,1587.0,Václav Havel Airport Prague,Prague,Slovenia,PRG,LKPR,50.1008,14.26,1247.0,1,E,Europe/Prague,Europe,340.0,Frankfurt am Main Airport,Frankfurt,Germany,FRA,EDDF,50.033333,8.570556,364.0,1,E,Europe/Berlin,Europe,16
3579,LH,3320,SKG,1486,FRA,340,Y,0.0,321,1486.0,Thessaloniki Macedonia International Airport,Thessaloniki,Greece,SKG,LGTS,40.5196991,22.97089958,22.0,2,E,Europe/Athens,Europe,340.0,Frankfurt am Main Airport,Frankfurt,Germany,FRA,EDDF,50.033333,8.570556,364.0,1,E,Europe/Berlin,Europe,13
3588,AB,214,VIE,1613,FRA,340,Y,0.0,E90 320,1613.0,Vienna International Airport,Vienna,Austria,VIE,LOWW,48.11029816,16.56970024,600.0,1,E,Europe/Vienna,Europe,340.0,Frankfurt am Main Airport,Frankfurt,Germany,FRA,EDDF,50.033333,8.570556,364.0,1,E,Europe/Berlin,Europe,127
3589,ET,2220,VIE,1613,FRA,340,Y,0.0,321,1613.0,Vienna International Airport,Vienna,Austria,VIE,LOWW,48.11029816,16.56970024,600.0,1,E,Europe/Vienna,Europe,340.0,Frankfurt am Main Airport,Frankfurt,Germany,FRA,EDDF,50.033333,8.570556,364.0,1,E,Europe/Berlin,Europe,127
3592,OS,491,VIE,1613,FRA,340,Y,0.0,321 320 319,1613.0,Vienna International Airport,Vienna,Austria,VIE,LOWW,48.11029816,16.56970024,600.0,1,E,Europe/Vienna,Europe,340.0,Frankfurt am Main Airport,Frankfurt,Germany,FRA,EDDF,50.033333,8.570556,364.0,1,E,Europe/Berlin,Europe,127
3594,LH,3320,VRN,1550,FRA,340,Y,0.0,E95,1550.0,Verona Villafranca Airport,Villafranca,Italy,VRN,LIPX,45.395699,10.8885,239.0,1,E,Europe/Rome,Europe,340.0,Frankfurt am Main Airport,Frankfurt,Germany,FRA,EDDF,50.033333,8.570556,364.0,1,E,Europe/Berlin,Europe,6
3595,ET,2220,WAW,679,FRA,340,Y,0.0,320 321 32A,679.0,Warsaw Chopin Airport,Warsaw,Poland,WAW,EPWA,52.16569901,20.96710014,362.0,1,E,Europe/Warsaw,Europe,340.0,Frankfurt am Main Airport,Frankfurt,Germany,FRA,EDDF,50.033333,8.570556,364.0,1,E,Europe/Berlin,Europe,13
3599,LO,3210,WRO,680,FRA,340,Y,0.0,CR7 32A 321,680.0,Copernicus Wroc?aw Airport,Wroclaw,Poland,WRO,EPWR,51.10269928,16.88579941,404.0,1,E,Europe/Warsaw,Europe,340.0,Frankfurt am Main Airport,Frankfurt,Germany,FRA,EDDF,50.033333,8.570556,364.0,1,E,Europe/Berlin,Europe,3
3622,ET,2220,CPH,609,FRA,340,Y,0.0,321 320,609.0,Copenhagen Kastrup Airport,Copenhagen,Denmark,CPH,EKCH,55.61790085,12.65600014,17.0,1,E,Europe/Copenhagen,Europe,340.0,Frankfurt am Main Airport,Frankfurt,Germany,FRA,EDDF,50.033333,8.570556,364.0,1,E,Europe/Berlin,Europe,41
3625,AB,214,RIX,3953,FRA,340,Y,0.0,735 DH4 73C,3953.0,Riga International Airport,Riga,Latvia,RIX,EVRA,56.92359924,23.97109985,36.0,2,E,Europe/Riga,Europe,340.0,Frankfurt am Main Airport,Frankfurt,Germany,FRA,EDDF,50.033333,8.570556,364.0,1,E,Europe/Berlin,Europe,18
3628,LH,3320,GWT,410,FRA,340,Y,0.0,E90,410.0,Westerland Sylt Airport,Westerland,Germany,GWT,EDXW,54.91320038,8.340470314,51.0,1,E,Europe/Berlin,Europe,340.0,Frankfurt am Main Airport,Frankfurt,Germany,FRA,EDDF,50.033333,8.570556,364.0,1,E,Europe/Berlin,Europe,2
3659,ET,2220,OTP,1657,FRA,340,Y,0.0,733,1657.0,Henri Coand? International Airport,Bucharest,Romania,OTP,LROP,44.5711111,26.085,314.0,2,E,Europe/Bucharest,Europe,340.0,Frankfurt am Main Airport,Frankfurt,Germany,FRA,EDDF,50.033333,8.570556,364.0,1,E,Europe/Berlin,Europe,18
3684,ET,2220,MRS,1353,FRA,340,Y,0.0,320 32A 319,1353.0,Marseille Provence Airport,Marseille,France,MRS,LFML,43.43927192,5.221424103,74.0,1,E,Europe/Paris,Europe,340.0,Frankfurt am Main Airport,Frankfurt,Germany,FRA,EDDF,50.033333,8.570556,364.0,1,E,Europe/Berlin,Europe,22
3689,ET,2220,SOF,1194,FRA,340,Y,0.0,320 32A 319,1194.0,Sofia Airport,Sofia,Bulgaria,SOF,LBSF,42.69669342,23.41143608,1742.0,2,E,Europe/Sofia,Europe,340.0,Frankfurt am Main Airport,Frankfurt,Germany,FRA,EDDF,50.033333,8.570556,364.0,1,E,Europe/Berlin,Europe,7
3693,LH,3320,FLR,1563,FRA,340,Y,0.0,E90,1563.0,Peretola Airport,Florence,Italy,FLR,LIRQ,43.810001,11.2051,142.0,1,E,Europe/Rome,Europe,340.0,Frankfurt am Main Airport,Frankfurt,Germany,FRA,EDDF,50.033333,8.570556,364.0,1,E,Europe/Berlin,Europe,18
3694,ET,2220,GOT,687,FRA,340,Y,0.0,319 733,687.0,Gothenburg-Landvetter Airport,Gothenborg,Sweden,GOT,ESGG,57.66279984,12.27980042,506.0,1,E,Europe/Stockholm,Europe,340.0,Frankfurt am Main Airport,Frankfurt,Germany,FRA,EDDF,50.033333,8.570556,364.0,1,E,Europe/Berlin,Europe,18
3696,SK,4319,GOT,687,FRA,340,Y,0.0,32A 319 733 321,687.0,Gothenburg-Landvetter Airport,Gothenborg,Sweden,GOT,ESGG,57.66279984,12.27980042,506.0,1,E,Europe/Stockholm,Europe,340.0,Frankfurt am Main Airport,Frankfurt,Germany,FRA,EDDF,50.033333,8.570556,364.0,1,E,Europe/Berlin,Europe,18
3716,SK,4319,SVG,666,FRA,340,Y,0.0,733 735 319,666.0,Stavanger Airport Sola,Stavanger,Norway,SVG,ENZV,58.87670135,5.63778019,29.0,1,E,Europe/Oslo,Europe,340.0,Frankfurt am Main Airport,Frankfurt,Germany,FRA,EDDF,50.033333,8.570556,364.0,1,E,Europe/Berlin,Europe,8
3723,LH,3320,FMO,341,FRA,340,Y,0.0,CR7,341.0,Münster Osnabrück Airport,Munster,Germany,FMO,EDDG,52.13460159,7.684830189,160.0,1,E,Europe/Berlin,Europe,340.0,Frankfurt am Main Airport,Frankfurt,Germany,FRA,EDDF,50.033333,8.570556,364.0,1,E,Europe/Berlin,Europe,2
3729,LO,3210,GDN,668,FRA,340,Y,0.0,319 321 32A 320,668.0,Gda?sk Lech Wa??sa Airport,Gdansk,Poland,GDN,EPGD,54.37760162,18.46619987,489.0,1,E,Europe/Warsaw,Europe,340.0,Frankfurt am Main Airport,Frankfurt,Germany,FRA,EDDF,50.033333,8.570556,364.0,1,E,Europe/Berlin,Europe,3
3730,LH,3320,INN,1610,FRA,340,Y,0.0,DH4,1610.0,Innsbruck Airport,Innsbruck,Austria,INN,LOWI,47.260201,11.344,1907.0,1,E,Europe/Vienna,Europe,340.0,Frankfurt am Main Airport,Frankfurt,Germany,FRA,EDDF,50.033333,8.570556,364.0,1,E,Europe/Berlin,Europe,4
3731,OS,491,INN,1610,FRA,340,Y,0.0,DH4,1610.0,Innsbruck Airport,Innsbruck,Austria,INN,LOWI,47.260201,11.344,1907.0,1,E,Europe/Vienna,Europe,340.0,Frankfurt am Main Airport,Frankfurt,Germany,FRA,EDDF,50.033333,8.570556,364.0,1,E,Europe/Berlin,Europe,4
3733,AB,214,LCY,503,FRA,340,Y,0.0,E70 E90 AR8,503.0,London City Airport,London,United Kingdom,LCY,EGLC,51.505299,0.055278,19.0,0,E,Europe/London,Europe,340.0,Frankfurt am Main Airport,Frankfurt,Germany,FRA,EDDF,50.033333,8.570556,364.0,1,E,Europe/Berlin,Europe,40
3734,BA,1355,LCY,503,FRA,340,Y,0.0,E70 E90 AR8,503.0,London City Airport,London,United Kingdom,LCY,EGLC,51.505299,0.055278,19.0,0,E,Europe/London,Europe,340.0,Frankfurt am Main Airport,Frankfurt,Germany,FRA,EDDF,50.033333,8.570556,364.0,1,E,Europe/Berlin,Europe,40
3735,LH,3320,LCY,503,FRA,340,Y,0.0,E90,503.0,London City Airport,London,United Kingdom,LCY,EGLC,51.505299,0.055278,19.0,0,E,Europe/London,Europe,340.0,Frankfurt am Main Airport,Frankfurt,Germany,FRA,EDDF,50.033333,8.570556,364.0,1,E,Europe/Berlin,Europe,40
3737,OS,491,LNZ,1611,FRA,340,Y,0.0,E90 CR7,1611.0,Linz Hörsching Airport,Linz,Austria,LNZ,LOWL,48.2332,14.1875,980.0,1,E,Europe/Vienna,Europe,340.0,Frankfurt am Main Airport,Frankfurt,Germany,FRA,EDDF,50.033333,8.570556,364.0,1,E,Europe/Berlin,Europe,5
3745,AC,330,VLC,1246,FRA,340,Y,0.0,319,1246.0,Valencia Airport,Valencia,Spain,VLC,LEVC,39.4893,-0.481625,240.0,1,E,Europe/Madrid,Europe,340.0,Frankfurt am Main Airport,Frankfurt,Germany,FRA,EDDF,50.033333,8.570556,364.0,1,E,Europe/Berlin,Europe,23
3752,AC,330,VNO,3959,FRA,340,Y,0.0,320 321,3959.0,Vilnius International Airport,Vilnius,Lithuania,VNO,EYVI,54.634102,25.285801,648.0,2,E,Europe/Vilnius,Europe,340.0,Frankfurt am Main Airport,Frankfurt,Germany,FRA,EDDF,50.033333,8.570556,364.0,1,E,Europe/Berlin,Europe,8
3758,SK,4319,BLL,608,FRA,340,Y,0.0,733 735,608.0,Billund Airport,Billund,Denmark,BLL,EKBI,55.74029922,9.151780128,247.0,1,E,Europe/Copenhagen,Europe,340.0,Frankfurt am Main Airport,Frankfurt,Germany,FRA,EDDF,50.033333,8.570556,364.0,1,E,Europe/Berlin,Europe,12
3760,LH,3320,LJU,1569,FRA,340,Y,0.0,CR9 319,1569.0,Ljubljana Joe Pu?nik Airport,Ljubljana,Slovenia,LJU,LJLJ,46.223701,14.4576,1273.0,1,E,Europe/Ljubljana,Europe,340.0,Frankfurt am Main Airport,Frankfurt,Germany,FRA,EDDF,50.033333,8.570556,364.0,1,E,Europe/Berlin,Europe,6
3766,LH,3320,MSQ,2954,FRA,340,Y,0.0,E90,2954.0,Minsk National Airport,Minsk 2,Belarus,MSQ,UMMS,53.88249969,28.03070068,670.0,3,E,Europe/Minsk,Europe,340.0,Frankfurt am Main Airport,Frankfurt,Germany,FRA,EDDF,50.033333,8.570556,364.0,1,E,Europe/Berlin,Europe,8
3768,TP,4869,OPO,1636,FRA,340,Y,0.0,321,1636.0,Francisco de Sá Carneiro Airport,Porto,Portugal,OPO,LPPR,41.24810028,-8.681389809,228.0,0,E,Europe/Lisbon,Europe,340.0,Frankfurt am Main Airport,Frankfurt,Germany,FRA,EDDF,50.033333,8.570556,364.0,1,E,Europe/Berlin,Europe,21
3789,S7,4329,OVB,4078,MUC,346,Y,0.0,738,4078.0,Tolmachevo Airport,Novosibirsk,Russia,OVB,UNNT,55.01259995,82.65070343,365.0,7,N,Asia/Krasnoyarsk,Europe,346.0,Munich Airport,Munich,Germany,MUC,EDDM,48.353802,11.7861,1487.0,1,E,Europe/Berlin,Europe,3
3792,IG,3463,BDS,1506,MUC,346,Y,0.0,320,1506.0,Brindisi  Salento Airport,Brindisi,Italy,BDS,LIBR,40.6576,17.947001,47.0,1,E,Europe/Rome,Europe,346.0,Munich Airport,Munich,Germany,MUC,EDDM,48.353802,11.7861,1487.0,1,E,Europe/Berlin,Europe,3
3796,LX,4559,GVA,1665,MUC,346,Y,0.0,E95 CR9,1665.0,Geneva Cointrin International Airport,Geneva,Switzerland,GVA,LSGG,46.23809814,6.108950138,1411.0,1,E,Europe/Paris,Europe,346.0,Munich Airport,Munich,Germany,MUC,EDDM,48.353802,11.7861,1487.0,1,E,Europe/Berlin,Europe,18
3811,SK,4319,ARN,737,MUC,346,Y,0.0,320 CR9 321 319,737.0,Stockholm-Arlanda Airport,Stockholm,Sweden,ARN,ESSA,59.65190125,17.91860008,137.0,1,E,Europe/Stockholm,Europe,346.0,Munich Airport,Munich,Germany,MUC,EDDM,48.353802,11.7861,1487.0,1,E,Europe/Berlin,Europe,39
3819,IB,2822,BCN,1218,MUC,346,Y,0.0,320,1218.0,Barcelona International Airport,Barcelona,Spain,BCN,LEBL,41.2971,2.07846,12.0,1,E,Europe/Madrid,Europe,346.0,Munich Airport,Munich,Germany,MUC,EDDM,48.353802,11.7861,1487.0,1,E,Europe/Berlin,Europe,94
3836,LH,3320,GRZ,1609,MUC,346,Y,0.0,CR9 CR7,1609.0,Graz Airport,Graz,Austria,GRZ,LOWG,46.99110031,15.43959999,1115.0,1,E,Europe/Vienna,Europe,346.0,Munich Airport,Munich,Germany,MUC,EDDM,48.353802,11.7861,1487.0,1,E,Europe/Berlin,Europe,9
3837,OS,491,GRZ,1609,MUC,346,Y,0.0,CR9 CR7,1609.0,Graz Airport,Graz,Austria,GRZ,LOWG,46.99110031,15.43959999,1115.0,1,E,Europe/Vienna,Europe,346.0,Munich Airport,Munich,Germany,MUC,EDDM,48.353802,11.7861,1487.0,1,E,Europe/Berlin,Europe,9
3841,IG,3463,NAP,1561,MUC,346,Y,0.0,320,1561.0,Naples International Airport,Naples,Italy,NAP,LIRN,40.886002,14.2908,294.0,1,E,Europe/Rome,Europe,346.0,Munich Airport,Munich,Germany,MUC,EDDM,48.353802,11.7861,1487.0,1,E,Europe/Berlin,Europe,14
3844,IG,3463,OLB,1520,MUC,346,Y,0.0,320,1520.0,Olbia Costa Smeralda Airport,Olbia,Italy,OLB,LIEO,40.898701,9.51763,37.0,1,E,Europe/Rome,Europe,346.0,Munich Airport,Munich,Germany,MUC,EDDM,48.353802,11.7861,1487.0,1,E,Europe/Berlin,Europe,12
3845,LH,3320,OLB,1520,MUC,346,Y,0.0,E95,1520.0,Olbia Costa Smeralda Airport,Olbia,Italy,OLB,LIEO,40.898701,9.51763,37.0,1,E,Europe/Rome,Europe,346.0,Munich Airport,Munich,Germany,MUC,EDDM,48.353802,11.7861,1487.0,1,E,Europe/Berlin,Europe,12
3849,LH,3320,ZAD,1209,MUC,346,Y,0.0,DH4,1209.0,Zadar Airport,Zadar,Croatia,ZAD,LDZD,44.108299,15.3467,289.0,1,E,Europe/Zagreb,Europe,346.0,Munich Airport,Munich,Germany,MUC,EDDM,48.353802,11.7861,1487.0,1,E,Europe/Berlin,Europe,2
3855,LH,3320,AMS,580,MUC,346,Y,0.0,E95 CR9,580.0,Amsterdam Airport Schiphol,Amsterdam,Netherlands,AMS,EHAM,52.308601,4.76389,-11.0,1,E,Europe/Amsterdam,Europe,346.0,Munich Airport,Munich,Germany,MUC,EDDM,48.353802,11.7861,1487.0,1,E,Europe/Berlin,Europe,95
3858,SN,1531,BRU,302,MUC,346,Y,0.0,E95 319 CR9 320,302.0,Brussels Airport,Brussels,Belgium,BRU,EBBR,50.90140152,4.48443985,184.0,1,E,Europe/Brussels,Europe,346.0,Munich Airport,Munich,Germany,MUC,EDDM,48.353802,11.7861,1487.0,1,E,Europe/Berlin,Europe,52
3863,LH,3320,LYS,1335,MUC,346,Y,0.0,E95 CR9,1335.0,Lyon Saint-Exupéry Airport,Lyon,France,LYS,LFLL,45.725556,5.081111,821.0,1,E,Europe/Paris,Europe,346.0,Munich Airport,Munich,Germany,MUC,EDDM,48.353802,11.7861,1487.0,1,E,Europe/Berlin,Europe,24
3871,LH,3320,TLS,1273,MUC,346,Y,0.0,E95 319 CR9,1273.0,Toulouse-Blagnac Airport,Toulouse,France,TLS,LFBO,43.629101,1.36382,499.0,1,E,Europe/Paris,Europe,346.0,Munich Airport,Munich,Germany,MUC,EDDM,48.353802,11.7861,1487.0,1,E,Europe/Berlin,Europe,16
3901,LH,3320,BSL,1423,MUC,346,Y,0.0,CR7 CR9,1423.0,EuroAirport Basel-Mulhouse-Freiburg Airport,Mulhouse,France,BSL,LFSB,47.59,7.5291667,885.0,1,E,Europe/Paris,Europe,346.0,Munich Airport,Munich,Germany,MUC,EDDM,48.353802,11.7861,1487.0,1,E,Europe/Berlin,Europe,19
3902,LX,4559,BSL,1423,MUC,346,Y,0.0,CR7 CR9,1423.0,EuroAirport Basel-Mulhouse-Freiburg Airport,Mulhouse,France,BSL,LFSB,47.59,7.5291667,885.0,1,E,Europe/Paris,Europe,346.0,Munich Airport,Munich,Germany,MUC,EDDM,48.353802,11.7861,1487.0,1,E,Europe/Berlin,Europe,19
3906,LH,3320,PRN,1742,MUC,346,Y,0.0,319,1742.0,Pritina International Airport,Pristina,Serbia,PRN,BKPR,42.5728,21.035801,1789.0,1,E,Europe/Belgrade,Europe,346.0,Munich Airport,Munich,Germany,MUC,EDDM,48.353802,11.7861,1487.0,1,E,Europe/Berlin,Europe,4
3909,IB,2822,AGP,1230,MUC,346,Y,0.0,320,1230.0,Málaga Airport,Malaga,Spain,AGP,LEMG,36.67490005,-4.499110222,53.0,1,E,Europe/Madrid,Europe,346.0,Munich Airport,Munich,Germany,MUC,EDDM,48.353802,11.7861,1487.0,1,E,Europe/Berlin,Europe,30
3912,LH,3320,AOI,4309,MUC,346,Y,0.0,CR9 E95,4309.0,Ancona Falconara Airport,Ancona,Italy,AOI,LIPY,43.616299,13.3623,49.0,1,E,Europe/Rome,Europe,346.0,Munich Airport,Munich,Germany,MUC,EDDM,48.353802,11.7861,1487.0,1,E,Europe/Berlin,Europe,2
3916,LH,3320,BEG,1739,MUC,346,Y,0.0,E95,1739.0,Belgrade Nikola Tesla Airport,Belgrade,Serbia,BEG,LYBE,44.81840134,20.3090992,335.0,1,E,Europe/Belgrade,Europe,346.0,Munich Airport,Munich,Germany,MUC,EDDM,48.353802,11.7861,1487.0,1,E,Europe/Berlin,Europe,4
3918,LH,3320,BHX,469,MUC,346,Y,0.0,E95,469.0,Birmingham International Airport,Birmingham,United Kingdom,BHX,EGBB,52.45389938,-1.748029947,327.0,0,E,Europe/London,Europe,346.0,Munich Airport,Munich,Germany,MUC,EDDM,48.353802,11.7861,1487.0,1,E,Europe/Berlin,Europe,7
3922,LH,3320,BRI,1501,MUC,346,Y,0.0,E95,1501.0,Bari Karol Wojty?a Airport,Bari,Italy,BRI,LIBD,41.138901,16.760599,177.0,1,E,Europe/Rome,Europe,346.0,Munich Airport,Munich,Germany,MUC,EDDM,48.353802,11.7861,1487.0,1,E,Europe/Berlin,Europe,4
3925,IG,3463,CAG,1519,MUC,346,Y,0.0,320,1519.0,Cagliari Elmas Airport,Cagliari,Italy,CAG,LIEE,39.251499,9.05428,13.0,1,E,Europe/Rome,Europe,346.0,Munich Airport,Munich,Germany,MUC,EDDM,48.353802,11.7861,1487.0,1,E,Europe/Berlin,Europe,1
3932,AY,2350,CTA,1509,MUC,346,Y,0.0,738,1509.0,Catania-Fontanarossa Airport,Catania,Italy,CTA,LICC,37.466801,15.0664,39.0,1,E,Europe/Rome,Europe,346.0,Munich Airport,Munich,Germany,MUC,EDDM,48.353802,11.7861,1487.0,1,E,Europe/Berlin,Europe,25
3933,IG,3463,CTA,1509,MUC,346,Y,0.0,320,1509.0,Catania-Fontanarossa Airport,Catania,Italy,CTA,LICC,37.466801,15.0664,39.0,1,E,Europe/Rome,Europe,346.0,Munich Airport,Munich,Germany,MUC,EDDM,48.353802,11.7861,1487.0,1,E,Europe/Berlin,Europe,25
3937,OU,1925,DBV,1200,MUC,346,Y,0.0,319 E95 320,1200.0,Dubrovnik Airport,Dubrovnik,Croatia,DBV,LDDU,42.56140137,18.26819992,527.0,1,E,Europe/Zagreb,Europe,346.0,Munich Airport,Munich,Germany,MUC,EDDM,48.353802,11.7861,1487.0,1,E,Europe/Berlin,Europe,7
3945,TP,4869,FAO,1626,MUC,346,Y,0.0,321,1626.0,Faro Airport,Faro,Portugal,FAO,LPFR,37.01440048,-7.965909958,24.0,0,E,Europe/Lisbon,Europe,346.0,Munich Airport,Munich,Germany,MUC,EDDM,48.353802,11.7861,1487.0,1,E,Europe/Berlin,Europe,5
3949,ET,2220,FRA,340,MUC,346,Y,0.0,320 319,340.0,Frankfurt am Main Airport,Frankfurt,Germany,FRA,EDDF,50.033333,8.570556,364.0,1,E,Europe/Berlin,Europe,346.0,Munich Airport,Munich,Germany,MUC,EDDM,48.353802,11.7861,1487.0,1,E,Europe/Berlin,Europe,90
3952,AB,214,HEL,421,MUC,346,Y,0.0,319 320 E90,421.0,Helsinki Vantaa Airport,Helsinki,Finland,HEL,EFHK,60.31719971,24.9633007,179.0,2,E,Europe/Helsinki,Europe,346.0,Munich Airport,Munich,Germany,MUC,EDDM,48.353802,11.7861,1487.0,1,E,Europe/Berlin,Europe,48
3955,SK,4319,HEL,421,MUC,346,Y,0.0,320 319,421.0,Helsinki Vantaa Airport,Helsinki,Finland,HEL,EFHK,60.31719971,24.9633007,179.0,2,E,Europe/Helsinki,Europe,346.0,Munich Airport,Munich,Germany,MUC,EDDM,48.353802,11.7861,1487.0,1,E,Europe/Berlin,Europe,48
3959,LH,3320,HER,1452,MUC,346,Y,0.0,320,1452.0,Heraklion International Nikos Kazantzakis Airport,Heraklion,Greece,HER,LGIR,35.33969879,25.18029976,115.0,2,E,Europe/Athens,Europe,346.0,Munich Airport,Munich,Germany,MUC,EDDM,48.353802,11.7861,1487.0,1,E,Europe/Berlin,Europe,8
3966,LH,3320,KRK,669,MUC,346,Y,0.0,319 320 E95,669.0,Kraków John Paul II International Airport,Krakow,Poland,KRK,EPKK,50.077702,19.7848,791.0,1,E,Europe/Warsaw,Europe,346.0,Munich Airport,Munich,Germany,MUC,EDDM,48.353802,11.7861,1487.0,1,E,Europe/Berlin,Europe,5
3967,LO,3210,KRK,669,MUC,346,Y,0.0,319 320 E95,669.0,Kraków John Paul II International Airport,Krakow,Poland,KRK,EPKK,50.077702,19.7848,791.0,1,E,Europe/Warsaw,Europe,346.0,Munich Airport,Munich,Germany,MUC,EDDM,48.353802,11.7861,1487.0,1,E,Europe/Berlin,Europe,5
3969,LH,3320,LEJ,348,MUC,346,Y,0.0,CR9 E95 CR7,348.0,Leipzig/Halle Airport,Leipzig,Germany,LEJ,EDDP,51.423889,12.236389,465.0,1,E,Europe/Berlin,Europe,346.0,Munich Airport,Munich,Germany,MUC,EDDM,48.353802,11.7861,1487.0,1,E,Europe/Berlin,Europe,4
3970,AA,24,LHR,507,MUC,346,Y,0.0,320 321 319,507.0,London Heathrow Airport,London,United Kingdom,LHR,EGLL,51.4706,-0.461941,83.0,0,E,Europe/London,Europe,346.0,Munich Airport,Munich,Germany,MUC,EDDM,48.353802,11.7861,1487.0,1,E,Europe/Berlin,Europe,94
3971,AB,214,LHR,507,MUC,346,Y,0.0,320 321 319,507.0,London Heathrow Airport,London,United Kingdom,LHR,EGLL,51.4706,-0.461941,83.0,0,E,Europe/London,Europe,346.0,Munich Airport,Munich,Germany,MUC,EDDM,48.353802,11.7861,1487.0,1,E,Europe/Berlin,Europe,94
3976,AB,214,MAD,1229,MUC,346,Y,0.0,319 320 321,1229.0,Adolfo Suárez MadridBarajas Airport,Madrid,Spain,MAD,LEMD,40.471926,-3.56264,1998.0,1,E,Europe/Madrid,Europe,346.0,Munich Airport,Munich,Germany,MUC,EDDM,48.353802,11.7861,1487.0,1,E,Europe/Berlin,Europe,69
3981,SA,4305,MAN,478,MUC,346,Y,0.0,319,478.0,Manchester Airport,Manchester,United Kingdom,MAN,EGCC,53.35369873,-2.274950027,257.0,0,E,Europe/London,Europe,346.0,Munich Airport,Munich,Germany,MUC,EDDM,48.353802,11.7861,1487.0,1,E,Europe/Berlin,Europe,21
3984,VA,5360,MAN,478,MUC,346,Y,0.0,77W,478.0,Manchester Airport,Manchester,United Kingdom,MAN,EGCC,53.35369873,-2.274950027,257.0,0,E,Europe/London,Europe,346.0,Munich Airport,Munich,Germany,MUC,EDDM,48.353802,11.7861,1487.0,1,E,Europe/Berlin,Europe,21
3985,VS,5347,MAN,478,MUC,346,Y,0.0,77W,478.0,Manchester Airport,Manchester,United Kingdom,MAN,EGCC,53.35369873,-2.274950027,257.0,0,E,Europe/London,Europe,346.0,Munich Airport,Munich,Germany,MUC,EDDM,48.353802,11.7861,1487.0,1,E,Europe/Berlin,Europe,21
3988,LH,3320,NUE,347,MUC,346,Y,0.0,CR7 CR9,347.0,Nuremberg Airport,Nuernberg,Germany,NUE,EDDN,49.498699,11.078056,1046.0,1,E,Europe/Berlin,Europe,346.0,Munich Airport,Munich,Germany,MUC,EDDM,48.353802,11.7861,1487.0,1,E,Europe/Berlin,Europe,6
3989,LH,3320,PMO,1512,MUC,346,Y,0.0,E95 319,1512.0,FalconeBorsellino Airport,Palermo,Italy,PMO,LICJ,38.175999,13.091,65.0,1,E,Europe/Rome,Europe,346.0,Munich Airport,Munich,Germany,MUC,EDDM,48.353802,11.7861,1487.0,1,E,Europe/Berlin,Europe,13
3991,LO,3210,POZ,674,MUC,346,Y,0.0,CR9 CR7,674.0,Pozna?-?awica Airport,Poznan,Poland,POZ,EPPO,52.42100143,16.82629967,308.0,1,E,Europe/Warsaw,Europe,346.0,Munich Airport,Munich,Germany,MUC,EDDM,48.353802,11.7861,1487.0,1,E,Europe/Berlin,Europe,2
3998,LH,3320,RLG,772,MUC,346,Y,0.0,CR9 E95,772.0,Rostock-Laage Airport,Laage,Germany,RLG,ETNL,53.91820145,12.27830029,138.0,1,E,Europe/Berlin,Europe,346.0,Munich Airport,Munich,Germany,MUC,EDDM,48.353802,11.7861,1487.0,1,E,Europe/Berlin,Europe,1
4002,LH,3320,SKG,1486,MUC,346,Y,0.0,320,1486.0,Thessaloniki Macedonia International Airport,Thessaloniki,Greece,SKG,LGTS,40.5196991,22.97089958,22.0,2,E,Europe/Athens,Europe,346.0,Munich Airport,Munich,Germany,MUC,EDDM,48.353802,11.7861,1487.0,1,E,Europe/Berlin,Europe,13
4003,US,5265,SKG,1486,MUC,346,Y,0.0,320,1486.0,Thessaloniki Macedonia International Airport,Thessaloniki,Greece,SKG,LGTS,40.5196991,22.97089958,22.0,2,E,Europe/Athens,Europe,346.0,Munich Airport,Munich,Germany,MUC,EDDM,48.353802,11.7861,1487.0,1,E,Europe/Berlin,Europe,13
4004,LH,3320,SPU,1206,MUC,346,Y,0.0,DH4 CR9,1206.0,Split Airport,Split,Croatia,SPU,LDSP,43.53889847,16.29800034,79.0,1,E,Europe/Zagreb,Europe,346.0,Munich Airport,Munich,Germany,MUC,EDDM,48.353802,11.7861,1487.0,1,E,Europe/Berlin,Europe,4
4007,LH,3320,STR,350,MUC,346,Y,0.0,CR9 CR7 E95,350.0,Stuttgart Airport,Stuttgart,Germany,STR,EDDS,48.68989944,9.221960068,1276.0,1,E,Europe/Berlin,Europe,346.0,Munich Airport,Munich,Germany,MUC,EDDM,48.353802,11.7861,1487.0,1,E,Europe/Berlin,Europe,17
4009,LH,3320,SUF,1508,MUC,346,Y,0.0,319,1508.0,Lamezia Terme Airport,Lamezia,Italy,SUF,LICA,38.905399,16.2423,39.0,1,E,Europe/Rome,Europe,346.0,Munich Airport,Munich,Germany,MUC,EDDM,48.353802,11.7861,1487.0,1,E,Europe/Berlin,Europe,4
4010,LH,3320,TRN,1526,MUC,346,Y,0.0,E95,1526.0,Turin Airport,Torino,Italy,TRN,LIMF,45.200802,7.64963,989.0,1,E,Europe/Rome,Europe,346.0,Munich Airport,Munich,Germany,MUC,EDDM,48.353802,11.7861,1487.0,1,E,Europe/Berlin,Europe,8
4013,LH,3320,VCE,1551,MUC,346,Y,0.0,E95,1551.0,Venice Marco Polo Airport,Venice,Italy,VCE,LIPZ,45.505299,12.3519,7.0,1,E,Europe/Rome,Europe,346.0,Munich Airport,Munich,Germany,MUC,EDDM,48.353802,11.7861,1487.0,1,E,Europe/Berlin,Europe,23
4014,AB,214,VIE,1613,MUC,346,Y,0.0,E90,1613.0,Vienna International Airport,Vienna,Austria,VIE,LOWW,48.11029816,16.56970024,600.0,1,E,Europe/Vienna,Europe,346.0,Munich Airport,Munich,Germany,MUC,EDDM,48.353802,11.7861,1487.0,1,E,Europe/Berlin,Europe,127
4017,OS,491,VIE,1613,MUC,346,Y,0.0,320 E95 319 100 CR9 F70,1613.0,Vienna International Airport,Vienna,Austria,VIE,LOWW,48.11029816,16.56970024,600.0,1,E,Europe/Vienna,Europe,346.0,Munich Airport,Munich,Germany,MUC,EDDM,48.353802,11.7861,1487.0,1,E,Europe/Berlin,Europe,127
4018,RJ,4259,VIE,1613,MUC,346,Y,0.0,E90,1613.0,Vienna International Airport,Vienna,Austria,VIE,LOWW,48.11029816,16.56970024,600.0,1,E,Europe/Vienna,Europe,346.0,Munich Airport,Munich,Germany,MUC,EDDM,48.353802,11.7861,1487.0,1,E,Europe/Berlin,Europe,127
4020,LH,3320,VRN,1550,MUC,346,Y,0.0,E95,1550.0,Verona Villafranca Airport,Villafranca,Italy,VRN,LIPX,45.395699,10.8885,239.0,1,E,Europe/Rome,Europe,346.0,Munich Airport,Munich,Germany,MUC,EDDM,48.353802,11.7861,1487.0,1,E,Europe/Berlin,Europe,6
4023,LH,3320,WRO,680,MUC,346,Y,0.0,CR7 CR9 E95,680.0,Copernicus Wroc?aw Airport,Wroclaw,Poland,WRO,EPWR,51.10269928,16.88579941,404.0,1,E,Europe/Warsaw,Europe,346.0,Munich Airport,Munich,Germany,MUC,EDDM,48.353802,11.7861,1487.0,1,E,Europe/Berlin,Europe,3
4024,LO,3210,WRO,680,MUC,346,Y,0.0,CR7 CR9 E95,680.0,Copernicus Wroc?aw Airport,Wroclaw,Poland,WRO,EPWR,51.10269928,16.88579941,404.0,1,E,Europe/Warsaw,Europe,346.0,Munich Airport,Munich,Germany,MUC,EDDM,48.353802,11.7861,1487.0,1,E,Europe/Berlin,Europe,3
4036,LH,3320,CPH,609,MUC,346,Y,0.0,CR9 E95 320 321 319,609.0,Copenhagen Kastrup Airport,Copenhagen,Denmark,CPH,EKCH,55.61790085,12.65600014,17.0,1,E,Europe/Copenhagen,Europe,346.0,Munich Airport,Munich,Germany,MUC,EDDM,48.353802,11.7861,1487.0,1,E,Europe/Berlin,Europe,41
4039,AB,214,RIX,3953,MUC,346,Y,0.0,73C DH4 735,3953.0,Riga International Airport,Riga,Latvia,RIX,EVRA,56.92359924,23.97109985,36.0,2,E,Europe/Riga,Europe,346.0,Munich Airport,Munich,Germany,MUC,EDDM,48.353802,11.7861,1487.0,1,E,Europe/Berlin,Europe,18
4042,LH,3320,GWT,410,MUC,346,Y,0.0,E95,410.0,Westerland Sylt Airport,Westerland,Germany,GWT,EDXW,54.91320038,8.340470314,51.0,1,E,Europe/Berlin,Europe,346.0,Munich Airport,Munich,Germany,MUC,EDDM,48.353802,11.7861,1487.0,1,E,Europe/Berlin,Europe,2
4055,LH,3320,ODS,2947,MUC,346,Y,0.0,CR9 CR7,2947.0,Odessa International Airport,Odessa,Ukraine,ODS,UKOO,46.42679977,30.67650032,172.0,2,E,Europe/Kiev,Europe,346.0,Munich Airport,Munich,Germany,MUC,EDDM,48.353802,11.7861,1487.0,1,E,Europe/Berlin,Europe,3
4062,LH,3320,KIV,1735,MUC,346,Y,0.0,E95,1735.0,Chi?in?u International Airport,Chisinau,Moldova,KIV,LUKK,46.92770004,28.93099976,399.0,2,E,Europe/Chisinau,Europe,346.0,Munich Airport,Munich,Germany,MUC,EDDM,48.353802,11.7861,1487.0,1,E,Europe/Berlin,Europe,2
4076,LH,3320,KLX,1456,MUC,346,Y,0.0,319,1456.0,Kalamata Airport,Kalamata,Greece,KLX,LGKL,37.06829834,22.02549934,26.0,2,E,Europe/Athens,Europe,346.0,Munich Airport,Munich,Germany,MUC,EDDM,48.353802,11.7861,1487.0,1,E,Europe/Berlin,Europe,1
4079,LH,3320,MRS,1353,MUC,346,Y,0.0,E95 CR9,1353.0,Marseille Provence Airport,Marseille,France,MRS,LFML,43.43927192,5.221424103,74.0,1,E,Europe/Paris,Europe,346.0,Munich Airport,Munich,Germany,MUC,EDDM,48.353802,11.7861,1487.0,1,E,Europe/Berlin,Europe,22
4084,LH,3320,TIA,1190,MUC,346,Y,0.0,E95,1190.0,Tirana International Airport Mother Teresa,Tirana,Albania,TIA,LATI,41.41469955,19.72060013,126.0,1,E,Europe/Tirane,Europe,346.0,Munich Airport,Munich,Germany,MUC,EDDM,48.353802,11.7861,1487.0,1,E,Europe/Berlin,Europe,8
4088,LH,3320,GOT,687,MUC,346,Y,0.0,E95 CR9,687.0,Gothenburg-Landvetter Airport,Gothenborg,Sweden,GOT,ESGG,57.66279984,12.27980042,506.0,1,E,Europe/Stockholm,Europe,346.0,Munich Airport,Munich,Germany,MUC,EDDM,48.353802,11.7861,1487.0,1,E,Europe/Berlin,Europe,18
4089,SK,4319,GOT,687,MUC,346,Y,0.0,E95 CR9,687.0,Gothenburg-Landvetter Airport,Gothenborg,Sweden,GOT,ESGG,57.66279984,12.27980042,506.0,1,E,Europe/Stockholm,Europe,346.0,Munich Airport,Munich,Germany,MUC,EDDM,48.353802,11.7861,1487.0,1,E,Europe/Berlin,Europe,18
4094,LH,3320,LUX,629,MUC,346,Y,0.0,CR9 CR7,629.0,Luxembourg-Findel International Airport,Luxemburg,Luxembourg,LUX,ELLX,49.6233333,6.2044444,1234.0,1,E,Europe/Luxembourg,Europe,346.0,Munich Airport,Munich,Germany,MUC,EDDM,48.353802,11.7861,1487.0,1,E,Europe/Berlin,Europe,11
4095,LH,3320,RTM,591,MUC,346,Y,0.0,CR7 CR9,591.0,Rotterdam The Hague Airport,Rotterdam,Netherlands,RTM,EHRD,51.956902,4.43722,-15.0,1,E,Europe/Amsterdam,Europe,346.0,Munich Airport,Munich,Germany,MUC,EDDM,48.353802,11.7861,1487.0,1,E,Europe/Berlin,Europe,4
4105,LH,3320,FMO,341,MUC,346,Y,0.0,E95 CR9,341.0,Münster Osnabrück Airport,Munster,Germany,FMO,EDDG,52.13460159,7.684830189,160.0,1,E,Europe/Berlin,Europe,346.0,Munich Airport,Munich,Germany,MUC,EDDM,48.353802,11.7861,1487.0,1,E,Europe/Berlin,Europe,2
4112,LO,3210,GDN,668,MUC,346,Y,0.0,E95,668.0,Gda?sk Lech Wa??sa Airport,Gdansk,Poland,GDN,EPGD,54.37760162,18.46619987,489.0,1,E,Europe/Warsaw,Europe,346.0,Munich Airport,Munich,Germany,MUC,EDDM,48.353802,11.7861,1487.0,1,E,Europe/Berlin,Europe,3
4119,LH,3320,PAD,371,MUC,346,Y,0.0,CR9 CR7,371.0,Paderborn Lippstadt Airport,Paderborn,Germany,PAD,EDLP,51.61410141,8.616319656,699.0,1,E,Europe/Berlin,Europe,346.0,Munich Airport,Munich,Germany,MUC,EDDM,48.353802,11.7861,1487.0,1,E,Europe/Berlin,Europe,1
4124,BA,1355,BLL,608,MUC,346,Y,0.0,FRJ,608.0,Billund Airport,Billund,Denmark,BLL,EKBI,55.74029922,9.151780128,247.0,1,E,Europe/Copenhagen,Europe,346.0,Munich Airport,Munich,Germany,MUC,EDDM,48.353802,11.7861,1487.0,1,E,Europe/Berlin,Europe,12
4127,LH,3320,LJU,1569,MUC,346,Y,0.0,CR9 CR2,1569.0,Ljubljana Joe Pu?nik Airport,Ljubljana,Slovenia,LJU,LJLJ,46.223701,14.4576,1273.0,1,E,Europe/Ljubljana,Europe,346.0,Munich Airport,Munich,Germany,MUC,EDDM,48.353802,11.7861,1487.0,1,E,Europe/Berlin,Europe,6
