,Airline,Airline ID,Source airport,Source airport ID,Destination airport,Destination airport ID,Codeshare,Stops,Equipment,Airport ID_x,Name_x,City,Country_x,IATA_x,ICAO_x,source_latitude,source_longitude,Altitude_x,TimeZone_x,DST_x,Tz Database Time Zone_x,Continent,Airport ID_y,Name_y,Destination City,Country_y,IATA_y,ICAO_y,destination_latitude,destination_longitude,Altitude_y,TimeZone_y,DST_y,Tz Database Time Zone_y,Destination Continent
225,BT,333,RIX,3953,TAS,2983,Y,0.0,763,3953.0,Riga International Airport,Riga,Latvia,RIX,EVRA,56.92359924,23.97109985,36.0,2,E,Europe/Riga,Europe,2983.0,Tashkent International Airport,Tashkent,Uzbekistan,TAS,UTTT,41.25790024,69.28119659,1417.0,5,U,Asia/Samarkand,Asia
281,OS,491,VIE,1613,EVN,3964,Y,0.0,320 321,1613.0,Vienna International Airport,Vienna,Austria,VIE,LOWW,48.11029816,16.56970024,600.0,1,E,Europe/Vienna,Europe,3964.0,Zvartnots International Airport,Yerevan,Armenia,EVN,UDYZ,40.14730072,44.39590073,2838.0,4,E,Asia/Yerevan,Asia
282,TD,1048,VIE,1613,EVN,3964,Y,0.0,321,1613.0,Vienna International Airport,Vienna,Austria,VIE,LOWW,48.11029816,16.56970024,600.0,1,E,Europe/Vienna,Europe,3964.0,Zvartnots International Airport,Yerevan,Armenia,EVN,UDYZ,40.14730072,44.39590073,2838.0,4,E,Asia/Yerevan,Asia
283,UA,5209,VIE,1613,EVN,3964,Y,0.0,320 321,1613.0,Vienna International Airport,Vienna,Austria,VIE,LOWW,48.11029816,16.56970024,600.0,1,E,Europe/Vienna,Europe,3964.0,Zvartnots International Airport,Yerevan,Armenia,EVN,UDYZ,40.14730072,44.39590073,2838.0,4,E,Asia/Yerevan,Asia
303,Z6,16120,DNK,2941,EVN,3964,Y,0.0,ER4,2941.0,Dnipropetrovsk International Airport,Dnepropetrovsk,Ukraine,DNK,UKDD,48.35720062,35.1006012,481.0,2,E,Europe/Kiev,Europe,3964.0,Zvartnots International Airport,Yerevan,Armenia,EVN,UDYZ,40.14730072,44.39590073,2838.0,4,E,Asia/Yerevan,Asia
419,UN,5067,SIN,3316,DME,4029,Y,0.0,77W,3316.0,Singapore Changi Airport,Singapore,Singapore,SIN,WSSS,1.35019,103.994003,22.0,8,N,Asia/Singapore,Asia,4029.0,Domodedovo International Airport,Moscow,Russia,DME,UUDD,55.40879822,37.90629959,588.0,3,N,Europe/Moscow,Europe
510,S7,4329,NRT,2279,DME,4029,Y,0.0,787,2279.0,Narita International Airport,Tokyo,Japan,NRT,RJAA,35.76470184,140.3860016,141.0,9,U,Asia/Tokyo,Asia,4029.0,Domodedovo International Airport,Moscow,Russia,DME,UUDD,55.40879822,37.90629959,588.0,3,N,Europe/Moscow,Europe
563,S7,4329,AMM,2170,DME,4029,Y,0.0,320,2170.0,Queen Alia International Airport,Amman,Jordan,AMM,OJAI,31.72260094,35.99319839,2395.0,2,E,Asia/Amman,Asia,4029.0,Domodedovo International Airport,Moscow,Russia,DME,UUDD,55.40879822,37.90629959,588.0,3,N,Europe/Moscow,Europe
569,S7,4329,AUH,2179,DME,4029,Y,0.0,330,2179.0,Abu Dhabi International Airport,Abu Dhabi,United Arab Emirates,AUH,OMAA,24.43300056,54.65110016,88.0,4,U,Asia/Dubai,Asia,4029.0,Domodedovo International Airport,Moscow,Russia,DME,UUDD,55.40879822,37.90629959,588.0,3,N,Europe/Moscow,Europe
576,UN,5067,IAH,3550,DME,4029,Y,0.0,77W,3550.0,George Bush Intercontinental Houston Airport,Houston,United States,IAH,KIAH,29.9843998,-95.34140015,97.0,-6,A,America/Chicago,North America,4029.0,Domodedovo International Airport,Moscow,Russia,DME,UUDD,55.40879822,37.90629959,588.0,3,N,Europe/Moscow,Europe
603,S7,4329,OSS,2913,DME,4029,Y,0.0,738,2913.0,Osh Airport,Osh,Kyrgyzstan,OSS,UAFO,40.60900116,72.79329681,2927.0,6,U,Asia/Bishkek,Asia,4029.0,Domodedovo International Airport,Moscow,Russia,DME,UUDD,55.40879822,37.90629959,588.0,3,N,Europe/Moscow,Europe
691,US,5265,ZRH,1678,IST,1701,Y,0.0,320,1678.0,Zürich Airport,Zurich,Switzerland,ZRH,LSZH,47.464699,8.54917,1416.0,1,E,Europe/Zurich,Europe,13696.0,Istanbul Airport,Istanbul,Turkey,IST,LTFM,41.275278,28.751944,325.0,3,E,\N,Asia
698,US,5265,ORD,3830,IST,1701,Y,0.0,330,3830.0,Chicago O'Hare International Airport,Chicago,United States,ORD,KORD,41.9786,-87.9048,672.0,-6,A,America/Chicago,North America,13696.0,Istanbul Airport,Istanbul,Turkey,IST,LTFM,41.275278,28.751944,325.0,3,E,\N,Asia
704,OZ,28,NBO,4059,IST,1701,Y,0.0,738,4059.0,Jomo Kenyatta International Airport,Nairobi,Kenya,NBO,HKJK,-1.319239974,36.92779922,5330.0,3,N,Africa/Nairobi,Africa,13696.0,Istanbul Airport,Istanbul,Turkey,IST,LTFM,41.275278,28.751944,325.0,3,E,\N,Asia
722,US,5265,MUC,346,IST,1701,Y,0.0,320 321 738,346.0,Munich Airport,Munich,Germany,MUC,EDDM,48.353802,11.7861,1487.0,1,E,Europe/Berlin,Europe,13696.0,Istanbul Airport,Istanbul,Turkey,IST,LTFM,41.275278,28.751944,325.0,3,E,\N,Asia
746,US,5265,LAX,3484,IST,1701,Y,0.0,77W,3484.0,Los Angeles International Airport,Los Angeles,United States,LAX,KLAX,33.94250107,-118.4079971,125.0,-8,A,America/Los_Angeles,North America,13696.0,Istanbul Airport,Istanbul,Turkey,IST,LTFM,41.275278,28.751944,325.0,3,E,\N,Asia
764,US,5265,JFK,3797,IST,1701,Y,0.0,330 77W,3797.0,John F Kennedy International Airport,New York,United States,JFK,KJFK,40.63980103,-73.77890015,13.0,-5,A,America/New_York,North America,13696.0,Istanbul Airport,Istanbul,Turkey,IST,LTFM,41.275278,28.751944,325.0,3,E,\N,Asia
798,US,5265,FRA,340,IST,1701,Y,0.0,320 330 321 343 332,340.0,Frankfurt am Main Airport,Frankfurt,Germany,FRA,EDDF,50.033333,8.570556,364.0,1,E,Europe/Berlin,Europe,13696.0,Istanbul Airport,Istanbul,Turkey,IST,LTFM,41.275278,28.751944,325.0,3,E,\N,Asia
803,AA,24,LHR,507,IST,1701,Y,0.0,767 320,507.0,London Heathrow Airport,London,United Kingdom,LHR,EGLL,51.4706,-0.461941,83.0,0,E,Europe/London,Europe,13696.0,Istanbul Airport,Istanbul,Turkey,IST,LTFM,41.275278,28.751944,325.0,3,E,\N,Asia
822,OS,491,VIE,1613,IST,1701,Y,0.0,320 100 319,1613.0,Vienna International Airport,Vienna,Austria,VIE,LOWW,48.11029816,16.56970024,600.0,1,E,Europe/Vienna,Europe,13696.0,Istanbul Airport,Istanbul,Turkey,IST,LTFM,41.275278,28.751944,325.0,3,E,\N,Asia
895,MS,2143,HBE,3410,IST,1701,Y,0.0,73W 319,3410.0,Borg El Arab International Airport,Alexandria,Egypt,HBE,HEBA,30.91769981,29.69639969,177.0,2,U,Africa/Cairo,Africa,13696.0,Istanbul Airport,Istanbul,Turkey,IST,LTFM,41.275278,28.751944,325.0,3,E,\N,Asia
931,US,5265,IAD,3714,IST,1701,Y,0.0,330,3714.0,Washington Dulles International Airport,Washington,United States,IAD,KIAD,38.94449997,-77.45580292,312.0,-5,A,America/New_York,North America,13696.0,Istanbul Airport,Istanbul,Turkey,IST,LTFM,41.275278,28.751944,325.0,3,E,\N,Asia
1006,Z6,16120,DNK,2941,IST,1701,Y,0.0,ER4,2941.0,Dnipropetrovsk International Airport,Dnepropetrovsk,Ukraine,DNK,UKDD,48.35720062,35.1006012,481.0,2,E,Europe/Kiev,Europe,13696.0,Istanbul Airport,Istanbul,Turkey,IST,LTFM,41.275278,28.751944,325.0,3,E,\N,Asia
1042,S7,4329,GYD,2922,LED,2948,Y,0.0,757,2922.0,Heydar Aliyev International Airport,Baku,Azerbaijan,GYD,UBBB,40.46749878,50.04669952,10.0,4,E,Asia/Baku,Asia,2948.0,Pulkovo Airport,St. Petersburg,Russia,LED,ULLI,59.8003006,30.26250076,78.0,3,N,Europe/Moscow,Europe
1288,SU,130,URC,3399,SVO,2985,Y,0.0,737,3399.0,Ürümqi Diwopu International Airport,Urumqi,China,URC,ZWWW,43.90710068,87.47419739,2125.0,8,U,Asia/Shanghai,Asia,2985.0,Sheremetyevo International Airport,Moscow,Russia,SVO,UUEE,55.972599,37.4146,622.0,3,N,Europe/Moscow,Europe
1295,KQ,3126,DXB,2188,SVO,2985,Y,0.0,320,2188.0,Dubai International Airport,Dubai,United Arab Emirates,DXB,OMDB,25.25279999,55.36439896,62.0,4,U,Asia/Dubai,Asia,2985.0,Sheremetyevo International Airport,Moscow,Russia,SVO,UUEE,55.972599,37.4146,622.0,3,N,Europe/Moscow,Europe
1303,CU,1936,HAV,1909,SVO,2985,Y,0.0,332,1909.0,José Martí International Airport,Havana,Cuba,HAV,MUHA,22.98920059,-82.40910339,210.0,-5,U,America/Havana,North America,2985.0,Sheremetyevo International Airport,Moscow,Russia,SVO,UUEE,55.972599,37.4146,622.0,3,N,Europe/Moscow,Europe
1851,TK,4951,MLA,1606,SAW,4317,Y,0.0,320,1606.0,Malta International Airport,Malta,Malta,MLA,LMML,35.857498,14.4775,300.0,1,E,Europe/Malta,Europe,4317.0,Sabiha Gökçen International Airport,Istanbul,Turkey,SAW,LTFJ,40.89860153,29.30920029,312.0,3,E,Europe/Istanbul,Asia
1915,S7,4329,HKG,3077,OVB,4078,Y,0.0,738,3077.0,Hong Kong International Airport,Hong Kong,Hong Kong,HKG,VHHH,22.308901,113.915001,28.0,8,U,Asia/Hong_Kong,Asia,4078.0,Tolmachevo Airport,Novosibirsk,Russia,OVB,UNNT,55.01259995,82.65070343,365.0,7,N,Asia/Krasnoyarsk,Europe
1978,OK,1946,GYD,2922,PRG,1587,Y,0.0,320,2922.0,Heydar Aliyev International Airport,Baku,Azerbaijan,GYD,UBBB,40.46749878,50.04669952,10.0,4,E,Asia/Baku,Asia,1587.0,Václav Havel Airport Prague,Prague,Slovenia,PRG,LKPR,50.1008,14.26,1247.0,1,E,Europe/Prague,Europe
2036,QF,4089,DXB,2188,PRG,1587,Y,0.0,77W,2188.0,Dubai International Airport,Dubai,United Arab Emirates,DXB,OMDB,25.25279999,55.36439896,62.0,4,U,Asia/Dubai,Asia,1587.0,Václav Havel Airport Prague,Prague,Slovenia,PRG,LKPR,50.1008,14.26,1247.0,1,E,Europe/Prague,Europe
2142,HY,5281,TAS,2983,PRG,1587,Y,0.0,319,2983.0,Tashkent International Airport,Tashkent,Uzbekistan,TAS,UTTT,41.25790024,69.28119659,1417.0,5,U,Asia/Samarkand,Asia,1587.0,Václav Havel Airport Prague,Prague,Slovenia,PRG,LKPR,50.1008,14.26,1247.0,1,E,Europe/Prague,Europe
2205,S7,4329,DME,4029,OSS,2913,Y,0.0,738,4029.0,Domodedovo International Airport,Moscow,Russia,DME,UUDD,55.40879822,37.90629959,588.0,3,N,Europe/Moscow,Europe,2913.0,Osh Airport,Osh,Kyrgyzstan,OSS,UAFO,40.60900116,72.79329681,2927.0,6,U,Asia/Bishkek,Asia
2598,A3,96,PHL,3752,ATH,3941,Y,0.0,332,3752.0,Philadelphia International Airport,Philadelphia,United States,PHL,KPHL,39.87189865,-75.2410965,36.0,-5,A,America/New_York,North America,3941.0,Eleftherios Venizelos International Airport,Athens,Greece,ATH,LGAV,37.93640137,23.94449997,308.0,2,E,Europe/Athens,Europe
3005,Z6,16120,DNK,2941,BUS,3971,Y,0.0,ER4,2941.0,Dnipropetrovsk International Airport,Dnepropetrovsk,Ukraine,DNK,UKDD,48.35720062,35.1006012,481.0,2,E,Europe/Kiev,Europe,3971.0,Batumi International Airport,Batumi,Georgia,BUS,UGSB,41.61029816,41.59970093,105.0,4,N,Asia/Tbilisi,Asia
3030,AB,214,ORD,3830,DUS,345,Y,0.0,763,3830.0,Chicago O'Hare International Airport,Chicago,United States,ORD,KORD,41.9786,-87.9048,672.0,-6,A,America/Chicago,North America,345.0,Düsseldorf Airport,Duesseldorf,Germany,DUS,EDDL,51.289501,6.76678,147.0,1,E,Europe/Berlin,Europe
3032,BA,1355,ORD,3830,DUS,345,Y,0.0,763,3830.0,Chicago O'Hare International Airport,Chicago,United States,ORD,KORD,41.9786,-87.9048,672.0,-6,A,America/Chicago,North America,345.0,Düsseldorf Airport,Duesseldorf,Germany,DUS,EDDL,51.289501,6.76678,147.0,1,E,Europe/Berlin,Europe
3033,IB,2822,ORD,3830,DUS,345,Y,0.0,763,3830.0,Chicago O'Hare International Airport,Chicago,United States,ORD,KORD,41.9786,-87.9048,672.0,-6,A,America/Chicago,North America,345.0,Düsseldorf Airport,Duesseldorf,Germany,DUS,EDDL,51.289501,6.76678,147.0,1,E,Europe/Berlin,Europe
3035,UA,5209,ORD,3830,DUS,345,Y,0.0,343,3830.0,Chicago O'Hare International Airport,Chicago,United States,ORD,KORD,41.9786,-87.9048,672.0,-6,A,America/Chicago,North America,345.0,Düsseldorf Airport,Duesseldorf,Germany,DUS,EDDL,51.289501,6.76678,147.0,1,E,Europe/Berlin,Europe
3064,AF,137,ATL,3682,DUS,345,Y,0.0,76W,3682.0,Hartsfield Jackson Atlanta International Airport,Atlanta,United States,ATL,KATL,33.6367,-84.428101,1026.0,-5,A,America/New_York,North America,345.0,Düsseldorf Airport,Duesseldorf,Germany,DUS,EDDL,51.289501,6.76678,147.0,1,E,Europe/Berlin,Europe
3066,KL,3090,ATL,3682,DUS,345,Y,0.0,76W,3682.0,Hartsfield Jackson Atlanta International Airport,Atlanta,United States,ATL,KATL,33.6367,-84.428101,1026.0,-5,A,America/New_York,North America,345.0,Düsseldorf Airport,Duesseldorf,Germany,DUS,EDDL,51.289501,6.76678,147.0,1,E,Europe/Berlin,Europe
3067,AA,24,RSW,3793,DUS,345,Y,0.0,330,3793.0,Southwest Florida International Airport,Fort Myers,United States,RSW,KRSW,26.53619957,-81.75520325,30.0,-5,A,America/New_York,North America,345.0,Düsseldorf Airport,Duesseldorf,Germany,DUS,EDDL,51.289501,6.76678,147.0,1,E,Europe/Berlin,Europe
3083,LH,3320,PEK,3364,DUS,345,Y,0.0,330,3364.0,Beijing Capital International Airport,Beijing,China,PEK,ZBAA,40.08010101,116.5849991,116.0,8,U,Asia/Shanghai,Asia,345.0,Düsseldorf Airport,Duesseldorf,Germany,DUS,EDDL,51.289501,6.76678,147.0,1,E,Europe/Berlin,Europe
3084,AA,24,LAX,3484,DUS,345,Y,0.0,330,3484.0,Los Angeles International Airport,Los Angeles,United States,LAX,KLAX,33.94250107,-118.4079971,125.0,-8,A,America/Los_Angeles,North America,345.0,Düsseldorf Airport,Duesseldorf,Germany,DUS,EDDL,51.289501,6.76678,147.0,1,E,Europe/Berlin,Europe
3089,QF,4089,DXB,2188,DUS,345,Y,0.0,77W,2188.0,Dubai International Airport,Dubai,United Arab Emirates,DXB,OMDB,25.25279999,55.36439896,62.0,4,U,Asia/Dubai,Asia,345.0,Düsseldorf Airport,Duesseldorf,Germany,DUS,EDDL,51.289501,6.76678,147.0,1,E,Europe/Berlin,Europe
3090,AA,24,JFK,3797,DUS,345,Y,0.0,330,3797.0,John F Kennedy International Airport,New York,United States,JFK,KJFK,40.63980103,-73.77890015,13.0,-5,A,America/New_York,North America,345.0,Düsseldorf Airport,Duesseldorf,Germany,DUS,EDDL,51.289501,6.76678,147.0,1,E,Europe/Berlin,Europe
3092,AA,24,MIA,3576,DUS,345,Y,0.0,330,3576.0,Miami International Airport,Miami,United States,MIA,KMIA,25.79319954,-80.29060364,8.0,-5,A,America/New_York,North America,345.0,Düsseldorf Airport,Duesseldorf,Germany,DUS,EDDL,51.289501,6.76678,147.0,1,E,Europe/Berlin,Europe
3215,LH,3320,NRT,2279,DUS,345,Y,0.0,788,2279.0,Narita International Airport,Tokyo,Japan,NRT,RJAA,35.76470184,140.3860016,141.0,9,U,Asia/Tokyo,Asia,345.0,Düsseldorf Airport,Duesseldorf,Germany,DUS,EDDL,51.289501,6.76678,147.0,1,E,Europe/Berlin,Europe
3232,AA,24,AUH,2179,DUS,345,Y,0.0,330,2179.0,Abu Dhabi International Airport,Abu Dhabi,United Arab Emirates,AUH,OMAA,24.43300056,54.65110016,88.0,4,U,Asia/Dubai,Asia,345.0,Düsseldorf Airport,Duesseldorf,Germany,DUS,EDDL,51.289501,6.76678,147.0,1,E,Europe/Berlin,Europe
3236,UA,5209,EWR,3494,DUS,345,Y,0.0,343,3494.0,Newark Liberty International Airport,Newark,United States,EWR,KEWR,40.69250107,-74.16870117,18.0,-5,A,America/New_York,North America,345.0,Düsseldorf Airport,Duesseldorf,Germany,DUS,EDDL,51.289501,6.76678,147.0,1,E,Europe/Berlin,Europe
3294,J2,197,GYD,2922,FRA,340,Y,0.0,333 343,2922.0,Heydar Aliyev International Airport,Baku,Azerbaijan,GYD,UBBB,40.46749878,50.04669952,10.0,4,E,Asia/Baku,Asia,340.0,Frankfurt am Main Airport,Frankfurt,Germany,FRA,EDDF,50.033333,8.570556,364.0,1,E,Europe/Berlin,Europe
3296,UA,5209,GYD,2922,FRA,340,Y,0.0,333,2922.0,Heydar Aliyev International Airport,Baku,Azerbaijan,GYD,UBBB,40.46749878,50.04669952,10.0,4,E,Asia/Baku,Asia,340.0,Frankfurt am Main Airport,Frankfurt,Germany,FRA,EDDF,50.033333,8.570556,364.0,1,E,Europe/Berlin,Europe
3300,LH,3320,ACC,248,FRA,340,Y,0.0,333,248.0,Kotoka International Airport,Accra,Ghana,ACC,DGAA,5.6051898,-0.166786,205.0,0,N,Africa/Accra,Africa,340.0,Frankfurt am Main Airport,Frankfurt,Germany,FRA,EDDF,50.033333,8.570556,364.0,1,E,Europe/Berlin,Europe
3301,AV,515,BOG,2709,FRA,340,Y,0.0,346,2709.0,El Dorado International Airport,Bogota,Colombia,BOG,SKBO,4.70159,-74.1469,8361.0,-5,U,America/Bogota,South America,340.0,Frankfurt am Main Airport,Frankfurt,Germany,FRA,EDDF,50.033333,8.570556,364.0,1,E,Europe/Berlin,Europe
3324,JJ,4867,GIG,2560,FRA,340,Y,0.0,744,2560.0,Rio Galeão  Tom Jobim International Airport,Rio De Janeiro,Brazil,GIG,SBGL,-22.80999947,-43.25055695,28.0,-3,S,America/Sao_Paulo,South America,340.0,Frankfurt am Main Airport,Frankfurt,Germany,FRA,EDDF,50.033333,8.570556,364.0,1,E,Europe/Berlin,Europe
3336,SN,1531,LOS,273,FRA,340,Y,0.0,333,273.0,Murtala Muhammed International Airport,Lagos,Nigeria,LOS,DNMM,6.577370167,3.321160078,135.0,1,N,Africa/Lagos,Africa,340.0,Frankfurt am Main Airport,Frankfurt,Germany,FRA,EDDF,50.033333,8.570556,364.0,1,E,Europe/Berlin,Europe
3337,UA,5209,LOS,273,FRA,340,Y,0.0,333,273.0,Murtala Muhammed International Airport,Lagos,Nigeria,LOS,DNMM,6.577370167,3.321160078,135.0,1,N,Africa/Lagos,Africa,340.0,Frankfurt am Main Airport,Frankfurt,Germany,FRA,EDDF,50.033333,8.570556,364.0,1,E,Europe/Berlin,Europe
3339,LH,3320,YUL,146,FRA,340,Y,0.0,333,146.0,Montreal / Pierre Elliott Trudeau International Airport,Montreal,Canada,YUL,CYUL,45.47060013,-73.74079895,118.0,-5,A,America/Toronto,North America,340.0,Frankfurt am Main Airport,Frankfurt,Germany,FRA,EDDF,50.033333,8.570556,364.0,1,E,Europe/Berlin,Europe
3345,NH,324,KIX,3992,FRA,340,Y,0.0,744,3992.0,Kansai International Airport,Osaka,Japan,KIX,RJBB,34.4272995,135.2440033,26.0,9,U,Asia/Tokyo,Asia,340.0,Frankfurt am Main Airport,Frankfurt,Germany,FRA,EDDF,50.033333,8.570556,364.0,1,E,Europe/Berlin,Europe
3349,AZ,596,SGN,3205,FRA,340,Y,0.0,777,3205.0,Tan Son Nhat International Airport,Ho Chi Minh City,Vietnam,SGN,VVTS,10.81879997,106.6520004,33.0,7,U,Asia/Saigon,Asia,340.0,Frankfurt am Main Airport,Frankfurt,Germany,FRA,EDDF,50.033333,8.570556,364.0,1,E,Europe/Berlin,Europe
3377,AF,137,ATL,3682,FRA,340,Y,0.0,764,3682.0,Hartsfield Jackson Atlanta International Airport,Atlanta,United States,ATL,KATL,33.6367,-84.428101,1026.0,-5,A,America/New_York,North America,340.0,Frankfurt am Main Airport,Frankfurt,Germany,FRA,EDDF,50.033333,8.570556,364.0,1,E,Europe/Berlin,Europe
3379,KL,3090,ATL,3682,FRA,340,Y,0.0,764,3682.0,Hartsfield Jackson Atlanta International Airport,Atlanta,United States,ATL,KATL,33.6367,-84.428101,1026.0,-5,A,America/New_York,North America,340.0,Frankfurt am Main Airport,Frankfurt,Germany,FRA,EDDF,50.033333,8.570556,364.0,1,E,Europe/Berlin,Europe
3381,UA,5209,ATL,3682,FRA,340,Y,0.0,343,3682.0,Hartsfield Jackson Atlanta International Airport,Atlanta,United States,ATL,KATL,33.6367,-84.428101,1026.0,-5,A,America/New_York,North America,340.0,Frankfurt am Main Airport,Frankfurt,Germany,FRA,EDDF,50.033333,8.570556,364.0,1,E,Europe/Berlin,Europe
3383,UA,5209,MCO,3878,FRA,340,Y,0.0,744,3878.0,Orlando International Airport,Orlando,United States,MCO,KMCO,28.42939949,-81.30899811,96.0,-5,A,America/New_York,North America,340.0,Frankfurt am Main Airport,Frankfurt,Germany,FRA,EDDF,50.033333,8.570556,364.0,1,E,Europe/Berlin,Europe
3409,LH,3320,CTU,3395,FRA,340,Y,0.0,330,3395.0,Chengdu Shuangliu International Airport,Chengdu,China,CTU,ZUUU,30.57850075,103.9469986,1625.0,8,U,Asia/Shanghai,Asia,340.0,Frankfurt am Main Airport,Frankfurt,Germany,FRA,EDDF,50.033333,8.570556,364.0,1,E,Europe/Berlin,Europe
3413,CA,751,NKG,3388,FRA,340,Y,0.0,343,3388.0,Nanjing Lukou Airport,Nanjing,China,NKG,ZSNJ,31.74200058,118.8619995,49.0,8,U,Asia/Shanghai,Asia,340.0,Frankfurt am Main Airport,Frankfurt,Germany,FRA,EDDF,50.033333,8.570556,364.0,1,E,Europe/Berlin,Europe
3420,CA,751,SHE,4144,FRA,340,Y,0.0,343,4144.0,Taoxian Airport,Shenyang,China,SHE,ZYTX,41.63980103,123.4830017,198.0,8,U,Asia/Shanghai,Asia,340.0,Frankfurt am Main Airport,Frankfurt,Germany,FRA,EDDF,50.033333,8.570556,364.0,1,E,Europe/Berlin,Europe
3422,AC,330,YVR,156,FRA,340,Y,0.0,744,156.0,Vancouver International Airport,Vancouver,Canada,YVR,CYVR,49.19390106,-123.1839981,14.0,-8,A,America/Vancouver,North America,340.0,Frankfurt am Main Airport,Frankfurt,Germany,FRA,EDDF,50.033333,8.570556,364.0,1,E,Europe/Berlin,Europe
3427,UA,5209,LAX,3484,FRA,340,Y,0.0,74H,3484.0,Los Angeles International Airport,Los Angeles,United States,LAX,KLAX,33.94250107,-118.4079971,125.0,-8,A,America/Los_Angeles,North America,340.0,Frankfurt am Main Airport,Frankfurt,Germany,FRA,EDDF,50.033333,8.570556,364.0,1,E,Europe/Berlin,Europe
3436,QF,4089,DXB,2188,FRA,340,Y,0.0,77W,2188.0,Dubai International Airport,Dubai,United Arab Emirates,DXB,OMDB,25.25279999,55.36439896,62.0,4,U,Asia/Dubai,Asia,340.0,Frankfurt am Main Airport,Frankfurt,Germany,FRA,EDDF,50.033333,8.570556,364.0,1,E,Europe/Berlin,Europe
3437,AC,330,JED,2072,FRA,340,Y,0.0,333,2072.0,King Abdulaziz International Airport,Jeddah,Saudi Arabia,JED,OEJN,21.6796,39.156502,48.0,3,U,Asia/Riyadh,Asia,340.0,Frankfurt am Main Airport,Frankfurt,Germany,FRA,EDDF,50.033333,8.570556,364.0,1,E,Europe/Berlin,Europe
3438,ET,2220,JED,2072,FRA,340,Y,0.0,333,2072.0,King Abdulaziz International Airport,Jeddah,Saudi Arabia,JED,OEJN,21.6796,39.156502,48.0,3,U,Asia/Riyadh,Asia,340.0,Frankfurt am Main Airport,Frankfurt,Germany,FRA,EDDF,50.033333,8.570556,364.0,1,E,Europe/Berlin,Europe
3440,SK,4319,JED,2072,FRA,340,Y,0.0,333,2072.0,King Abdulaziz International Airport,Jeddah,Saudi Arabia,JED,OEJN,21.6796,39.156502,48.0,3,U,Asia/Riyadh,Asia,340.0,Frankfurt am Main Airport,Frankfurt,Germany,FRA,EDDF,50.033333,8.570556,364.0,1,E,Europe/Berlin,Europe
3442,UA,5209,JED,2072,FRA,340,Y,0.0,333,2072.0,King Abdulaziz International Airport,Jeddah,Saudi Arabia,JED,OEJN,21.6796,39.156502,48.0,3,U,Asia/Riyadh,Asia,340.0,Frankfurt am Main Airport,Frankfurt,Germany,FRA,EDDF,50.033333,8.570556,364.0,1,E,Europe/Berlin,Europe
3445,AB,214,DFW,3670,FRA,340,Y,0.0,777,3670.0,Dallas Fort Worth International Airport,Dallas-Fort Worth,United States,DFW,KDFW,32.896801,-97.038002,607.0,-6,A,America/Chicago,North America,340.0,Frankfurt am Main Airport,Frankfurt,Germany,FRA,EDDF,50.033333,8.570556,364.0,1,E,Europe/Berlin,Europe
3446,AY,2350,DFW,3670,FRA,340,Y,0.0,777,3670.0,Dallas Fort Worth International Airport,Dallas-Fort Worth,United States,DFW,KDFW,32.896801,-97.038002,607.0,-6,A,America/Chicago,North America,340.0,Frankfurt am Main Airport,Frankfurt,Germany,FRA,EDDF,50.033333,8.570556,364.0,1,E,Europe/Berlin,Europe
3447,BA,1355,DFW,3670,FRA,340,Y,0.0,777,3670.0,Dallas Fort Worth International Airport,Dallas-Fort Worth,United States,DFW,KDFW,32.896801,-97.038002,607.0,-6,A,America/Chicago,North America,340.0,Frankfurt am Main Airport,Frankfurt,Germany,FRA,EDDF,50.033333,8.570556,364.0,1,E,Europe/Berlin,Europe
3448,IB,2822,DFW,3670,FRA,340,Y,0.0,777,3670.0,Dallas Fort Worth International Airport,Dallas-Fort Worth,United States,DFW,KDFW,32.896801,-97.038002,607.0,-6,A,America/Chicago,North America,340.0,Frankfurt am Main Airport,Frankfurt,Germany,FRA,EDDF,50.033333,8.570556,364.0,1,E,Europe/Berlin,Europe
3451,UA,5209,DFW,3670,FRA,340,Y,0.0,333,3670.0,Dallas Fort Worth International Airport,Dallas-Fort Worth,United States,DFW,KDFW,32.896801,-97.038002,607.0,-6,A,America/Chicago,North America,340.0,Frankfurt am Main Airport,Frankfurt,Germany,FRA,EDDF,50.033333,8.570556,364.0,1,E,Europe/Berlin,Europe
3454,AF,137,JFK,3797,FRA,340,Y,0.0,76W,3797.0,John F Kennedy International Airport,New York,United States,JFK,KJFK,40.63980103,-73.77890015,13.0,-5,A,America/New_York,North America,340.0,Frankfurt am Main Airport,Frankfurt,Germany,FRA,EDDF,50.033333,8.570556,364.0,1,E,Europe/Berlin,Europe
3456,ET,2220,JFK,3797,FRA,340,Y,0.0,744,3797.0,John F Kennedy International Airport,New York,United States,JFK,KJFK,40.63980103,-73.77890015,13.0,-5,A,America/New_York,North America,340.0,Frankfurt am Main Airport,Frankfurt,Germany,FRA,EDDF,50.033333,8.570556,364.0,1,E,Europe/Berlin,Europe
3457,KL,3090,JFK,3797,FRA,340,Y,0.0,76W,3797.0,John F Kennedy International Airport,New York,United States,JFK,KJFK,40.63980103,-73.77890015,13.0,-5,A,America/New_York,North America,340.0,Frankfurt am Main Airport,Frankfurt,Germany,FRA,EDDF,50.033333,8.570556,364.0,1,E,Europe/Berlin,Europe
3460,UA,5209,JFK,3797,FRA,340,Y,0.0,388 744,3797.0,John F Kennedy International Airport,New York,United States,JFK,KJFK,40.63980103,-73.77890015,13.0,-5,A,America/New_York,North America,340.0,Frankfurt am Main Airport,Frankfurt,Germany,FRA,EDDF,50.033333,8.570556,364.0,1,E,Europe/Berlin,Europe
3463,UA,5209,MIA,3576,FRA,340,Y,0.0,388,3576.0,Miami International Airport,Miami,United States,MIA,KMIA,25.79319954,-80.29060364,8.0,-5,A,America/New_York,North America,340.0,Frankfurt am Main Airport,Frankfurt,Germany,FRA,EDDF,50.033333,8.570556,364.0,1,E,Europe/Berlin,Europe
3466,LH,3320,YOW,100,FRA,340,Y,0.0,333,100.0,Ottawa Macdonald-Cartier International Airport,Ottawa,Canada,YOW,CYOW,45.32249832,-75.66919708,374.0,-5,A,America/Toronto,North America,340.0,Frankfurt am Main Airport,Frankfurt,Germany,FRA,EDDF,50.033333,8.570556,364.0,1,E,Europe/Berlin,Europe
3468,LH,3320,YYC,178,FRA,340,Y,0.0,77W,178.0,Calgary International Airport,Calgary,Canada,YYC,CYYC,51.11389923,-114.0199966,3557.0,-7,A,America/Edmonton,North America,340.0,Frankfurt am Main Airport,Frankfurt,Germany,FRA,EDDF,50.033333,8.570556,364.0,1,E,Europe/Berlin,Europe
3606,AZ,596,HAN,3199,FRA,340,Y,0.0,777,3199.0,Noi Bai International Airport,Hanoi,Vietnam,HAN,VVNB,21.22120094,105.8069992,39.0,7,U,Asia/Saigon,Asia,340.0,Frankfurt am Main Airport,Frankfurt,Germany,FRA,EDDF,50.033333,8.570556,364.0,1,E,Europe/Berlin,Europe
3609,NH,324,NGO,3942,FRA,340,Y,0.0,343,3942.0,Chubu Centrair International Airport,Nagoya,Japan,NGO,RJGG,34.85839844,136.8049927,15.0,9,U,Asia/Tokyo,Asia,340.0,Frankfurt am Main Airport,Frankfurt,Germany,FRA,EDDF,50.033333,8.570556,364.0,1,E,Europe/Berlin,Europe
3615,AI,218,BLR,3131,FRA,340,Y,0.0,74H,3131.0,Kempegowda International Airport,Bangalore,India,BLR,VOBL,13.1979,77.706299,3000.0,5.5,N,Asia/Calcutta,Asia,340.0,Frankfurt am Main Airport,Frankfurt,Germany,FRA,EDDF,50.033333,8.570556,364.0,1,E,Europe/Berlin,Europe
3617,AI,218,BOM,2997,FRA,340,Y,0.0,744,2997.0,Chhatrapati Shivaji International Airport,Mumbai,India,BOM,VABB,19.08869934,72.86789703,39.0,5.5,N,Asia/Calcutta,Asia,340.0,Frankfurt am Main Airport,Frankfurt,Germany,FRA,EDDF,50.033333,8.570556,364.0,1,E,Europe/Berlin,Europe
3619,AI,218,MAA,3144,FRA,340,Y,0.0,343,3144.0,Chennai International Airport,Madras,India,MAA,VOMM,12.99000549,80.16929626,52.0,5.5,N,Asia/Calcutta,Asia,340.0,Frankfurt am Main Airport,Frankfurt,Germany,FRA,EDDF,50.033333,8.570556,364.0,1,E,Europe/Berlin,Europe
3640,US,5265,IST,1701,FRA,340,Y,0.0,330 321 320 343 332,13696.0,Istanbul Airport,Istanbul,Turkey,IST,LTFM,41.275278,28.751944,325.0,3,E,\N,Asia,340.0,Frankfurt am Main Airport,Frankfurt,Germany,FRA,EDDF,50.033333,8.570556,364.0,1,E,Europe/Berlin,Europe
3645,AB,214,AMM,2170,FRA,340,Y,0.0,319,2170.0,Queen Alia International Airport,Amman,Jordan,AMM,OJAI,31.72260094,35.99319839,2395.0,2,E,Asia/Amman,Asia,340.0,Frankfurt am Main Airport,Frankfurt,Germany,FRA,EDDF,50.033333,8.570556,364.0,1,E,Europe/Berlin,Europe
3648,AF,137,DTW,3645,FRA,340,Y,0.0,764,3645.0,Detroit Metropolitan Wayne County Airport,Detroit,United States,DTW,KDTW,42.21239853,-83.35340118,645.0,-5,A,America/New_York,North America,340.0,Frankfurt am Main Airport,Frankfurt,Germany,FRA,EDDF,50.033333,8.570556,364.0,1,E,Europe/Berlin,Europe
3650,KL,3090,DTW,3645,FRA,340,Y,0.0,767,3645.0,Detroit Metropolitan Wayne County Airport,Detroit,United States,DTW,KDTW,42.21239853,-83.35340118,645.0,-5,A,America/New_York,North America,340.0,Frankfurt am Main Airport,Frankfurt,Germany,FRA,EDDF,50.033333,8.570556,364.0,1,E,Europe/Berlin,Europe
3652,UA,5209,DTW,3645,FRA,340,Y,0.0,343,3645.0,Detroit Metropolitan Wayne County Airport,Detroit,United States,DTW,KDTW,42.21239853,-83.35340118,645.0,-5,A,America/New_York,North America,340.0,Frankfurt am Main Airport,Frankfurt,Germany,FRA,EDDF,50.033333,8.570556,364.0,1,E,Europe/Berlin,Europe
3654,UA,5209,BOS,3448,FRA,340,Y,0.0,744 346,3448.0,General Edward Lawrence Logan International Airport,Boston,United States,BOS,KBOS,42.36429977,-71.00520325,20.0,-5,A,America/New_York,North America,340.0,Frankfurt am Main Airport,Frankfurt,Germany,FRA,EDDF,50.033333,8.570556,364.0,1,E,Europe/Berlin,Europe
3662,AB,214,AUH,2179,FRA,340,Y,0.0,332 333,2179.0,Abu Dhabi International Airport,Abu Dhabi,United Arab Emirates,AUH,OMAA,24.43300056,54.65110016,88.0,4,U,Asia/Dubai,Asia,340.0,Frankfurt am Main Airport,Frankfurt,Germany,FRA,EDDF,50.033333,8.570556,364.0,1,E,Europe/Berlin,Europe
3666,UA,5209,AUH,2179,FRA,340,Y,0.0,333,2179.0,Abu Dhabi International Airport,Abu Dhabi,United Arab Emirates,AUH,OMAA,24.43300056,54.65110016,88.0,4,U,Asia/Dubai,Asia,340.0,Frankfurt am Main Airport,Frankfurt,Germany,FRA,EDDF,50.033333,8.570556,364.0,1,E,Europe/Berlin,Europe
3669,LH,3320,DMM,2064,FRA,340,Y,0.0,73H,2064.0,King Fahd International Airport,Dammam,Saudi Arabia,DMM,OEDF,26.47120094,49.79790115,72.0,3,U,Asia/Riyadh,Asia,340.0,Frankfurt am Main Airport,Frankfurt,Germany,FRA,EDDF,50.033333,8.570556,364.0,1,E,Europe/Berlin,Europe
3670,AC,330,DOH,11051,FRA,340,Y,0.0,333,11051.0,Hamad International Airport,Doha,Qatar,DOH,OTHH,25.273056,51.608056,13.0,3,N,\N,Asia,340.0,Frankfurt am Main Airport,Frankfurt,Germany,FRA,EDDF,50.033333,8.570556,364.0,1,E,Europe/Berlin,Europe
3672,LX,4559,DOH,11051,FRA,340,Y,0.0,333,11051.0,Hamad International Airport,Doha,Qatar,DOH,OTHH,25.273056,51.608056,13.0,3,N,\N,Asia,340.0,Frankfurt am Main Airport,Frankfurt,Germany,FRA,EDDF,50.033333,8.570556,364.0,1,E,Europe/Berlin,Europe
3674,UA,5209,DOH,11051,FRA,340,Y,0.0,333,11051.0,Hamad International Airport,Doha,Qatar,DOH,OTHH,25.273056,51.608056,13.0,3,N,\N,Asia,340.0,Frankfurt am Main Airport,Frankfurt,Germany,FRA,EDDF,50.033333,8.570556,364.0,1,E,Europe/Berlin,Europe
3700,UA,5209,DEN,3751,FRA,340,Y,0.0,744,3751.0,Denver International Airport,Denver,United States,DEN,KDEN,39.86169815,-104.6729965,5431.0,-7,A,America/Denver,North America,340.0,Frankfurt am Main Airport,Frankfurt,Germany,FRA,EDDF,50.033333,8.570556,364.0,1,E,Europe/Berlin,Europe
3711,UA,5209,SEA,3577,FRA,340,Y,0.0,333 343,3577.0,Seattle Tacoma International Airport,Seattle,United States,SEA,KSEA,47.449001,-122.308998,433.0,-8,A,America/Los_Angeles,North America,340.0,Frankfurt am Main Airport,Frankfurt,Germany,FRA,EDDF,50.033333,8.570556,364.0,1,E,Europe/Berlin,Europe
3713,NZ,345,SFO,3469,FRA,340,Y,0.0,744,3469.0,San Francisco International Airport,San Francisco,United States,SFO,KSFO,37.61899948,-122.375,13.0,-8,A,America/Los_Angeles,North America,340.0,Frankfurt am Main Airport,Frankfurt,Germany,FRA,EDDF,50.033333,8.570556,364.0,1,E,Europe/Berlin,Europe
3749,LH,3320,ADD,1107,FRA,340,Y,0.0,788,1107.0,Addis Ababa Bole International Airport,Addis Ababa,Ethiopia,ADD,HAAB,8.977890015,38.79930115,7630.0,3,U,Africa/Addis_Ababa,Africa,340.0,Frankfurt am Main Airport,Frankfurt,Germany,FRA,EDDF,50.033333,8.570556,364.0,1,E,Europe/Berlin,Europe
3776,UA,5209,TSE,2910,FRA,340,Y,0.0,333,2910.0,Astana International Airport,Tselinograd,Kazakhstan,TSE,UACC,51.02220154,71.46690369,1165.0,6,U,Asia/Qyzylorda,Asia,340.0,Frankfurt am Main Airport,Frankfurt,Germany,FRA,EDDF,50.033333,8.570556,364.0,1,E,Europe/Berlin,Europe
3815,JJ,4867,GRU,2564,MUC,346,Y,0.0,346,2564.0,Guarulhos - Governador André Franco Montoro International Airport,Sao Paulo,Brazil,GRU,SBGR,-23.43555641,-46.47305679,2459.0,-3,S,America/Sao_Paulo,South America,346.0,Munich Airport,Munich,Germany,MUC,EDDM,48.353802,11.7861,1487.0,1,E,Europe/Berlin,Europe
3823,AC,330,YUL,146,MUC,346,Y,0.0,333,146.0,Montreal / Pierre Elliott Trudeau International Airport,Montreal,Canada,YUL,CYUL,45.47060013,-73.74079895,118.0,-5,A,America/Toronto,North America,346.0,Munich Airport,Munich,Germany,MUC,EDDM,48.353802,11.7861,1487.0,1,E,Europe/Berlin,Europe
3825,LH,3320,BKK,3885,MUC,346,Y,0.0,747,3885.0,Suvarnabhumi Airport,Bangkok,Thailand,BKK,VTBS,13.68109989,100.7470016,5.0,7,U,Asia/Bangkok,Asia,346.0,Munich Airport,Munich,Germany,MUC,EDDM,48.353802,11.7861,1487.0,1,E,Europe/Berlin,Europe
3830,VA,5360,SIN,3316,MUC,346,Y,0.0,77W,3316.0,Singapore Changi Airport,Singapore,Singapore,SIN,WSSS,1.35019,103.994003,22.0,8,N,Asia/Singapore,Asia,346.0,Munich Airport,Munich,Germany,MUC,EDDM,48.353802,11.7861,1487.0,1,E,Europe/Berlin,Europe
3831,VS,5347,SIN,3316,MUC,346,Y,0.0,77W,3316.0,Singapore Changi Airport,Singapore,Singapore,SIN,WSSS,1.35019,103.994003,22.0,8,N,Asia/Singapore,Asia,346.0,Munich Airport,Munich,Germany,MUC,EDDM,48.353802,11.7861,1487.0,1,E,Europe/Berlin,Europe
3851,AF,137,ATL,3682,MUC,346,Y,0.0,764,3682.0,Hartsfield Jackson Atlanta International Airport,Atlanta,United States,ATL,KATL,33.6367,-84.428101,1026.0,-5,A,America/New_York,North America,346.0,Munich Airport,Munich,Germany,MUC,EDDM,48.353802,11.7861,1487.0,1,E,Europe/Berlin,Europe
3853,KL,3090,ATL,3682,MUC,346,Y,0.0,764,3682.0,Hartsfield Jackson Atlanta International Airport,Atlanta,United States,ATL,KATL,33.6367,-84.428101,1026.0,-5,A,America/New_York,North America,346.0,Munich Airport,Munich,Germany,MUC,EDDM,48.353802,11.7861,1487.0,1,E,Europe/Berlin,Europe
3875,CA,751,PVG,3406,MUC,346,Y,0.0,346,3406.0,Shanghai Pudong International Airport,Shanghai,China,PVG,ZSPD,31.14340019,121.8050003,13.0,8,U,Asia/Shanghai,Asia,346.0,Munich Airport,Munich,Germany,MUC,EDDM,48.353802,11.7861,1487.0,1,E,Europe/Berlin,Europe
3877,AC,330,YVR,156,MUC,346,Y,0.0,333,156.0,Vancouver International Airport,Vancouver,Canada,YVR,CYVR,49.19390106,-123.1839981,14.0,-8,A,America/Vancouver,North America,346.0,Munich Airport,Munich,Germany,MUC,EDDM,48.353802,11.7861,1487.0,1,E,Europe/Berlin,Europe
3880,UA,5209,LAX,3484,MUC,346,Y,0.0,346,3484.0,Los Angeles International Airport,Los Angeles,United States,LAX,KLAX,33.94250107,-118.4079971,125.0,-8,A,America/Los_Angeles,North America,346.0,Munich Airport,Munich,Germany,MUC,EDDM,48.353802,11.7861,1487.0,1,E,Europe/Berlin,Europe
3881,LH,3320,CAI,1128,MUC,346,Y,0.0,738,1128.0,Cairo International Airport,Cairo,Egypt,CAI,HECA,30.12190056,31.40559959,382.0,2,U,Africa/Cairo,Africa,346.0,Munich Airport,Munich,Germany,MUC,EDDM,48.353802,11.7861,1487.0,1,E,Europe/Berlin,Europe
3888,QF,4089,DXB,2188,MUC,346,Y,0.0,388,2188.0,Dubai International Airport,Dubai,United Arab Emirates,DXB,OMDB,25.25279999,55.36439896,62.0,4,U,Asia/Dubai,Asia,346.0,Munich Airport,Munich,Germany,MUC,EDDM,48.353802,11.7861,1487.0,1,E,Europe/Berlin,Europe
3891,UA,5209,JFK,3797,MUC,346,Y,0.0,333,3797.0,John F Kennedy International Airport,New York,United States,JFK,KJFK,40.63980103,-73.77890015,13.0,-5,A,America/New_York,North America,346.0,Munich Airport,Munich,Germany,MUC,EDDM,48.353802,11.7861,1487.0,1,E,Europe/Berlin,Europe
3895,AI,218,DEL,3093,MUC,346,Y,0.0,333,3093.0,Indira Gandhi International Airport,Delhi,India,DEL,VIDP,28.5665,77.103104,777.0,5.5,N,Asia/Calcutta,Asia,346.0,Munich Airport,Munich,Germany,MUC,EDDM,48.353802,11.7861,1487.0,1,E,Europe/Berlin,Europe
4030,LH,3320,JNB,813,MUC,346,Y,0.0,346 343 332,813.0,OR Tambo International Airport,Johannesburg,South Africa,JNB,FAOR,-26.1392,28.246,5558.0,2,U,Africa/Johannesburg,Africa,346.0,Munich Airport,Munich,Germany,MUC,EDDM,48.353802,11.7861,1487.0,1,E,Europe/Berlin,Europe
4033,AI,218,BOM,2997,MUC,346,Y,0.0,333,2997.0,Chhatrapati Shivaji International Airport,Mumbai,India,BOM,VABB,19.08869934,72.86789703,39.0,5.5,N,Asia/Calcutta,Asia,346.0,Munich Airport,Munich,Germany,MUC,EDDM,48.353802,11.7861,1487.0,1,E,Europe/Berlin,Europe
4049,US,5265,IST,1701,MUC,346,Y,0.0,321 320 738,13696.0,Istanbul Airport,Istanbul,Turkey,IST,LTFM,41.275278,28.751944,325.0,3,E,\N,Asia,346.0,Munich Airport,Munich,Germany,MUC,EDDM,48.353802,11.7861,1487.0,1,E,Europe/Berlin,Europe
4056,AB,214,AMM,2170,MUC,346,Y,0.0,319,2170.0,Queen Alia International Airport,Amman,Jordan,AMM,OJAI,31.72260094,35.99319839,2395.0,2,E,Asia/Amman,Asia,346.0,Munich Airport,Munich,Germany,MUC,EDDM,48.353802,11.7861,1487.0,1,E,Europe/Berlin,Europe
4059,UA,5209,BOS,3448,MUC,346,Y,0.0,333,3448.0,General Edward Lawrence Logan International Airport,Boston,United States,BOS,KBOS,42.36429977,-71.00520325,20.0,-5,A,America/New_York,North America,346.0,Munich Airport,Munich,Germany,MUC,EDDM,48.353802,11.7861,1487.0,1,E,Europe/Berlin,Europe
4065,AB,214,AUH,2179,MUC,346,Y,0.0,346 345 333,2179.0,Abu Dhabi International Airport,Abu Dhabi,United Arab Emirates,AUH,OMAA,24.43300056,54.65110016,88.0,4,U,Asia/Dubai,Asia,346.0,Munich Airport,Munich,Germany,MUC,EDDM,48.353802,11.7861,1487.0,1,E,Europe/Berlin,Europe
4074,LH,3320,YYZ,193,MUC,346,Y,0.0,77W,193.0,Lester B. Pearson International Airport,Toronto,Canada,YYZ,CYYZ,43.67720032,-79.63059998,569.0,-5,A,America/Toronto,North America,346.0,Munich Airport,Munich,Germany,MUC,EDDM,48.353802,11.7861,1487.0,1,E,Europe/Berlin,Europe
4097,UA,5209,SFO,3469,MUC,346,Y,0.0,346,3469.0,San Francisco International Airport,San Francisco,United States,SFO,KSFO,37.61899948,-122.375,13.0,-8,A,America/Los_Angeles,North America,346.0,Munich Airport,Munich,Germany,MUC,EDDM,48.353802,11.7861,1487.0,1,E,Europe/Berlin,Europe
4164,AA,24,ORD,3830,TXL,351,Y,0.0,330,3830.0,Chicago O'Hare International Airport,Chicago,United States,ORD,KORD,41.9786,-87.9048,672.0,-6,A,America/Chicago,North America,351.0,Berlin-Tegel Airport,Berlin,Germany,TXL,EDDT,52.5597,13.2877,122.0,1,E,Europe/Berlin,Europe
4201,AB,214,PEK,3364,TXL,351,Y,0.0,330,3364.0,Beijing Capital International Airport,Beijing,China,PEK,ZBAA,40.08010101,116.5849991,116.0,8,U,Asia/Shanghai,Asia,351.0,Berlin-Tegel Airport,Berlin,Germany,TXL,EDDT,52.5597,13.2877,122.0,1,E,Europe/Berlin,Europe
4206,AA,24,JFK,3797,TXL,351,Y,0.0,330,3797.0,John F Kennedy International Airport,New York,United States,JFK,KJFK,40.63980103,-73.77890015,13.0,-5,A,America/New_York,North America,351.0,Berlin-Tegel Airport,Berlin,Germany,TXL,EDDT,52.5597,13.2877,122.0,1,E,Europe/Berlin,Europe
4208,AA,24,MIA,3576,TXL,351,Y,0.0,330,3576.0,Miami International Airport,Miami,United States,MIA,KMIA,25.79319954,-80.29060364,8.0,-5,A,America/New_York,North America,351.0,Berlin-Tegel Airport,Berlin,Germany,TXL,EDDT,52.5597,13.2877,122.0,1,E,Europe/Berlin,Europe
4313,AB,214,AMM,2170,TXL,351,Y,0.0,320 319,2170.0,Queen Alia International Airport,Amman,Jordan,AMM,OJAI,31.72260094,35.99319839,2395.0,2,E,Asia/Amman,Asia,351.0,Berlin-Tegel Airport,Berlin,Germany,TXL,EDDT,52.5597,13.2877,122.0,1,E,Europe/Berlin,Europe
4319,EY,2222,AUH,2179,TXL,351,Y,0.0,332,2179.0,Abu Dhabi International Airport,Abu Dhabi,United Arab Emirates,AUH,OMAA,24.43300056,54.65110016,88.0,4,U,Asia/Dubai,Asia,351.0,Berlin-Tegel Airport,Berlin,Germany,TXL,EDDT,52.5597,13.2877,122.0,1,E,Europe/Berlin,Europe
4321,LH,3320,EWR,3494,TXL,351,Y,0.0,752,3494.0,Newark Liberty International Airport,Newark,United States,EWR,KEWR,40.69250107,-74.16870117,18.0,-5,A,America/New_York,North America,351.0,Berlin-Tegel Airport,Berlin,Germany,TXL,EDDT,52.5597,13.2877,122.0,1,E,Europe/Berlin,Europe
4385,JL,2987,KIX,3992,HEL,421,Y,0.0,333,3992.0,Kansai International Airport,Osaka,Japan,KIX,RJBB,34.4272995,135.2440033,26.0,9,U,Asia/Tokyo,Asia,421.0,Helsinki Vantaa Airport,Helsinki,Finland,HEL,EFHK,60.31719971,24.9633007,179.0,2,E,Europe/Helsinki,Europe
4412,AA,24,JFK,3797,HEL,421,Y,0.0,330,3797.0,John F Kennedy International Airport,New York,United States,JFK,KJFK,40.63980103,-73.77890015,13.0,-5,A,America/New_York,North America,421.0,Helsinki Vantaa Airport,Helsinki,Finland,HEL,EFHK,60.31719971,24.9633007,179.0,2,E,Europe/Helsinki,Europe
4414,BA,1355,JFK,3797,HEL,421,Y,0.0,333,3797.0,John F Kennedy International Airport,New York,United States,JFK,KJFK,40.63980103,-73.77890015,13.0,-5,A,America/New_York,North America,421.0,Helsinki Vantaa Airport,Helsinki,Finland,HEL,EFHK,60.31719971,24.9633007,179.0,2,E,Europe/Helsinki,Europe
4415,IB,2822,JFK,3797,HEL,421,Y,0.0,330,3797.0,John F Kennedy International Airport,New York,United States,JFK,KJFK,40.63980103,-73.77890015,13.0,-5,A,America/New_York,North America,421.0,Helsinki Vantaa Airport,Helsinki,Finland,HEL,EFHK,60.31719971,24.9633007,179.0,2,E,Europe/Helsinki,Europe
4460,JL,2987,NGO,3942,HEL,421,Y,0.0,333,3942.0,Chubu Centrair International Airport,Nagoya,Japan,NGO,RJGG,34.85839844,136.8049927,15.0,9,U,Asia/Tokyo,Asia,421.0,Helsinki Vantaa Airport,Helsinki,Finland,HEL,EFHK,60.31719971,24.9633007,179.0,2,E,Europe/Helsinki,Europe
4519,AA,24,ACC,248,LHR,507,Y,0.0,744,248.0,Kotoka International Airport,Accra,Ghana,ACC,DGAA,5.6051898,-0.166786,205.0,0,N,Africa/Accra,Africa,507.0,London Heathrow Airport,London,United Kingdom,LHR,EGLL,51.4706,-0.461941,83.0,0,E,Europe/London,Europe
4549,DL,2009,ORD,3830,LHR,507,Y,0.0,343,3830.0,Chicago O'Hare International Airport,Chicago,United States,ORD,KORD,41.9786,-87.9048,672.0,-6,A,America/Chicago,North America,507.0,London Heathrow Airport,London,United Kingdom,LHR,EGLL,51.4706,-0.461941,83.0,0,E,Europe/London,Europe
4550,IB,2822,ORD,3830,LHR,507,Y,0.0,763 777 744,3830.0,Chicago O'Hare International Airport,Chicago,United States,ORD,KORD,41.9786,-87.9048,672.0,-6,A,America/Chicago,North America,507.0,London Heathrow Airport,London,United Kingdom,LHR,EGLL,51.4706,-0.461941,83.0,0,E,Europe/London,Europe
4551,LH,3320,ORD,3830,LHR,507,Y,0.0,763,3830.0,Chicago O'Hare International Airport,Chicago,United States,ORD,KORD,41.9786,-87.9048,672.0,-6,A,America/Chicago,North America,507.0,London Heathrow Airport,London,United Kingdom,LHR,EGLL,51.4706,-0.461941,83.0,0,E,Europe/London,Europe
4561,W3,20976,LOS,273,LHR,507,Y,0.0,332,273.0,Murtala Muhammed International Airport,Lagos,Nigeria,LOS,DNMM,6.577370167,3.321160078,135.0,1,N,Africa/Lagos,Africa,507.0,London Heathrow Airport,London,United Kingdom,LHR,EGLL,51.4706,-0.461941,83.0,0,E,Europe/London,Europe
4562,AA,24,YUL,146,LHR,507,Y,0.0,777,146.0,Montreal / Pierre Elliott Trudeau International Airport,Montreal,Canada,YUL,CYUL,45.47060013,-73.74079895,118.0,-5,A,America/Toronto,North America,507.0,London Heathrow Airport,London,United Kingdom,LHR,EGLL,51.4706,-0.461941,83.0,0,E,Europe/London,Europe
4564,AY,2350,YUL,146,LHR,507,Y,0.0,777,146.0,Montreal / Pierre Elliott Trudeau International Airport,Montreal,Canada,YUL,CYUL,45.47060013,-73.74079895,118.0,-5,A,America/Toronto,North America,507.0,London Heathrow Airport,London,United Kingdom,LHR,EGLL,51.4706,-0.461941,83.0,0,E,Europe/London,Europe
4566,IB,2822,YUL,146,LHR,507,Y,0.0,777,146.0,Montreal / Pierre Elliott Trudeau International Airport,Montreal,Canada,YUL,CYUL,45.47060013,-73.74079895,118.0,-5,A,America/Toronto,North America,507.0,London Heathrow Airport,London,United Kingdom,LHR,EGLL,51.4706,-0.461941,83.0,0,E,Europe/London,Europe
4567,LH,3320,YUL,146,LHR,507,Y,0.0,77W,146.0,Montreal / Pierre Elliott Trudeau International Airport,Montreal,Canada,YUL,CYUL,45.47060013,-73.74079895,118.0,-5,A,America/Toronto,North America,507.0,London Heathrow Airport,London,United Kingdom,LHR,EGLL,51.4706,-0.461941,83.0,0,E,Europe/London,Europe
4568,AA,24,NBO,4059,LHR,507,Y,0.0,744,4059.0,Jomo Kenyatta International Airport,Nairobi,Kenya,NBO,HKJK,-1.319239974,36.92779922,5330.0,3,N,Africa/Nairobi,Africa,507.0,London Heathrow Airport,London,United Kingdom,LHR,EGLL,51.4706,-0.461941,83.0,0,E,Europe/London,Europe
4573,IB,2822,BKK,3885,LHR,507,Y,0.0,777,3885.0,Suvarnabhumi Airport,Bangkok,Thailand,BKK,VTBS,13.68109989,100.7470016,5.0,7,U,Asia/Bangkok,Asia,507.0,London Heathrow Airport,London,United Kingdom,LHR,EGLL,51.4706,-0.461941,83.0,0,E,Europe/London,Europe
4581,IB,2822,SIN,3316,LHR,507,Y,0.0,744 777,3316.0,Singapore Changi Airport,Singapore,Singapore,SIN,WSSS,1.35019,103.994003,22.0,8,N,Asia/Singapore,Asia,507.0,London Heathrow Airport,London,United Kingdom,LHR,EGLL,51.4706,-0.461941,83.0,0,E,Europe/London,Europe
4583,VS,5347,SIN,3316,LHR,507,Y,0.0,77W 388,3316.0,Singapore Changi Airport,Singapore,Singapore,SIN,WSSS,1.35019,103.994003,22.0,8,N,Asia/Singapore,Asia,507.0,London Heathrow Airport,London,United Kingdom,LHR,EGLL,51.4706,-0.461941,83.0,0,E,Europe/London,Europe
4599,AA,24,ATL,3682,LHR,507,Y,0.0,777,3682.0,Hartsfield Jackson Atlanta International Airport,Atlanta,United States,ATL,KATL,33.6367,-84.428101,1026.0,-5,A,America/New_York,North America,507.0,London Heathrow Airport,London,United Kingdom,LHR,EGLL,51.4706,-0.461941,83.0,0,E,Europe/London,Europe
4600,AF,137,ATL,3682,LHR,507,Y,0.0,764 77L 76W,3682.0,Hartsfield Jackson Atlanta International Airport,Atlanta,United States,ATL,KATL,33.6367,-84.428101,1026.0,-5,A,America/New_York,North America,507.0,London Heathrow Airport,London,United Kingdom,LHR,EGLL,51.4706,-0.461941,83.0,0,E,Europe/London,Europe
4601,AY,2350,ATL,3682,LHR,507,Y,0.0,777,3682.0,Hartsfield Jackson Atlanta International Airport,Atlanta,United States,ATL,KATL,33.6367,-84.428101,1026.0,-5,A,America/New_York,North America,507.0,London Heathrow Airport,London,United Kingdom,LHR,EGLL,51.4706,-0.461941,83.0,0,E,Europe/London,Europe
4604,IB,2822,ATL,3682,LHR,507,Y,0.0,777,3682.0,Hartsfield Jackson Atlanta International Airport,Atlanta,United States,ATL,KATL,33.6367,-84.428101,1026.0,-5,A,America/New_York,North America,507.0,London Heathrow Airport,London,United Kingdom,LHR,EGLL,51.4706,-0.461941,83.0,0,E,Europe/London,Europe
4605,KL,3090,ATL,3682,LHR,507,Y,0.0,764 77L 76W,3682.0,Hartsfield Jackson Atlanta International Airport,Atlanta,United States,ATL,KATL,33.6367,-84.428101,1026.0,-5,A,America/New_York,North America,507.0,London Heathrow Airport,London,United Kingdom,LHR,EGLL,51.4706,-0.461941,83.0,0,E,Europe/London,Europe
4606,VS,5347,ATL,3682,LHR,507,Y,0.0,764 77L 76W,3682.0,Hartsfield Jackson Atlanta International Airport,Atlanta,United States,ATL,KATL,33.6367,-84.428101,1026.0,-5,A,America/New_York,North America,507.0,London Heathrow Airport,London,United Kingdom,LHR,EGLL,51.4706,-0.461941,83.0,0,E,Europe/London,Europe
4633,VS,5347,PEK,3364,LHR,507,Y,0.0,773,3364.0,Beijing Capital International Airport,Beijing,China,PEK,ZBAA,40.08010101,116.5849991,116.0,8,U,Asia/Shanghai,Asia,507.0,London Heathrow Airport,London,United Kingdom,LHR,EGLL,51.4706,-0.461941,83.0,0,E,Europe/London,Europe
4635,CA,751,PVG,3406,LHR,507,Y,0.0,346,3406.0,Shanghai Pudong International Airport,Shanghai,China,PVG,ZSPD,31.14340019,121.8050003,13.0,8,U,Asia/Shanghai,Asia,507.0,London Heathrow Airport,London,United Kingdom,LHR,EGLL,51.4706,-0.461941,83.0,0,E,Europe/London,Europe
4638,AA,24,YVR,156,LHR,507,Y,0.0,744,156.0,Vancouver International Airport,Vancouver,Canada,YVR,CYVR,49.19390106,-123.1839981,14.0,-8,A,America/Vancouver,North America,507.0,London Heathrow Airport,London,United Kingdom,LHR,EGLL,51.4706,-0.461941,83.0,0,E,Europe/London,Europe
4640,AY,2350,YVR,156,LHR,507,Y,0.0,744,156.0,Vancouver International Airport,Vancouver,Canada,YVR,CYVR,49.19390106,-123.1839981,14.0,-8,A,America/Vancouver,North America,507.0,London Heathrow Airport,London,United Kingdom,LHR,EGLL,51.4706,-0.461941,83.0,0,E,Europe/London,Europe
4642,IB,2822,YVR,156,LHR,507,Y,0.0,744,156.0,Vancouver International Airport,Vancouver,Canada,YVR,CYVR,49.19390106,-123.1839981,14.0,-8,A,America/Vancouver,North America,507.0,London Heathrow Airport,London,United Kingdom,LHR,EGLL,51.4706,-0.461941,83.0,0,E,Europe/London,Europe
4643,LH,3320,YVR,156,LHR,507,Y,0.0,77W,156.0,Vancouver International Airport,Vancouver,Canada,YVR,CYVR,49.19390106,-123.1839981,14.0,-8,A,America/Vancouver,North America,507.0,London Heathrow Airport,London,United Kingdom,LHR,EGLL,51.4706,-0.461941,83.0,0,E,Europe/London,Europe
4644,AA,24,LAS,3877,LHR,507,Y,0.0,744,3877.0,McCarran International Airport,Las Vegas,United States,LAS,KLAS,36.08010101,-115.1520004,2181.0,-8,A,America/Los_Angeles,North America,507.0,London Heathrow Airport,London,United Kingdom,LHR,EGLL,51.4706,-0.461941,83.0,0,E,Europe/London,Europe
4647,IB,2822,LAS,3877,LHR,507,Y,0.0,744,3877.0,McCarran International Airport,Las Vegas,United States,LAS,KLAS,36.08010101,-115.1520004,2181.0,-8,A,America/Los_Angeles,North America,507.0,London Heathrow Airport,London,United Kingdom,LHR,EGLL,51.4706,-0.461941,83.0,0,E,Europe/London,Europe
4651,DL,2009,LAX,3484,LHR,507,Y,0.0,346 343 744,3484.0,Los Angeles International Airport,Los Angeles,United States,LAX,KLAX,33.94250107,-118.4079971,125.0,-8,A,America/Los_Angeles,North America,507.0,London Heathrow Airport,London,United Kingdom,LHR,EGLL,51.4706,-0.461941,83.0,0,E,Europe/London,Europe
4652,IB,2822,LAX,3484,LHR,507,Y,0.0,744 77W 388,3484.0,Los Angeles International Airport,Los Angeles,United States,LAX,KLAX,33.94250107,-118.4079971,125.0,-8,A,America/Los_Angeles,North America,507.0,London Heathrow Airport,London,United Kingdom,LHR,EGLL,51.4706,-0.461941,83.0,0,E,Europe/London,Europe
4653,LH,3320,LAX,3484,LHR,507,Y,0.0,777,3484.0,Los Angeles International Airport,Los Angeles,United States,LAX,KLAX,33.94250107,-118.4079971,125.0,-8,A,America/Los_Angeles,North America,507.0,London Heathrow Airport,London,United Kingdom,LHR,EGLL,51.4706,-0.461941,83.0,0,E,Europe/London,Europe
4656,UN,5067,LAX,3484,LHR,507,Y,0.0,346,3484.0,Los Angeles International Airport,Los Angeles,United States,LAX,KLAX,33.94250107,-118.4079971,125.0,-8,A,America/Los_Angeles,North America,507.0,London Heathrow Airport,London,United Kingdom,LHR,EGLL,51.4706,-0.461941,83.0,0,E,Europe/London,Europe
4666,AA,24,DXB,2188,LHR,507,Y,0.0,744 777,2188.0,Dubai International Airport,Dubai,United Arab Emirates,DXB,OMDB,25.25279999,55.36439896,62.0,4,U,Asia/Dubai,Asia,507.0,London Heathrow Airport,London,United Kingdom,LHR,EGLL,51.4706,-0.461941,83.0,0,E,Europe/London,Europe
4677,IB,2822,DFW,3670,LHR,507,Y,0.0,77W 744 777,3670.0,Dallas Fort Worth International Airport,Dallas-Fort Worth,United States,DFW,KDFW,32.896801,-97.038002,607.0,-6,A,America/Chicago,North America,507.0,London Heathrow Airport,London,United Kingdom,LHR,EGLL,51.4706,-0.461941,83.0,0,E,Europe/London,Europe
4682,AF,137,JFK,3797,LHR,507,Y,0.0,764 76W,3797.0,John F Kennedy International Airport,New York,United States,JFK,KJFK,40.63980103,-73.77890015,13.0,-5,A,America/New_York,North America,507.0,London Heathrow Airport,London,United Kingdom,LHR,EGLL,51.4706,-0.461941,83.0,0,E,Europe/London,Europe
4683,AI,218,JFK,3797,LHR,507,Y,0.0,772,3797.0,John F Kennedy International Airport,New York,United States,JFK,KJFK,40.63980103,-73.77890015,13.0,-5,A,America/New_York,North America,507.0,London Heathrow Airport,London,United Kingdom,LHR,EGLL,51.4706,-0.461941,83.0,0,E,Europe/London,Europe
4687,IB,2822,JFK,3797,LHR,507,Y,0.0,744 77W 777,3797.0,John F Kennedy International Airport,New York,United States,JFK,KJFK,40.63980103,-73.77890015,13.0,-5,A,America/New_York,North America,507.0,London Heathrow Airport,London,United Kingdom,LHR,EGLL,51.4706,-0.461941,83.0,0,E,Europe/London,Europe
4688,KL,3090,JFK,3797,LHR,507,Y,0.0,767 76W,3797.0,John F Kennedy International Airport,New York,United States,JFK,KJFK,40.63980103,-73.77890015,13.0,-5,A,America/New_York,North America,507.0,London Heathrow Airport,London,United Kingdom,LHR,EGLL,51.4706,-0.461941,83.0,0,E,Europe/London,Europe
4696,DL,2009,MIA,3576,LHR,507,Y,0.0,744 333,3576.0,Miami International Airport,Miami,United States,MIA,KMIA,25.79319954,-80.29060364,8.0,-5,A,America/New_York,North America,507.0,London Heathrow Airport,London,United Kingdom,LHR,EGLL,51.4706,-0.461941,83.0,0,E,Europe/London,Europe
4697,IB,2822,MIA,3576,LHR,507,Y,0.0,744 77W 777,3576.0,Miami International Airport,Miami,United States,MIA,KMIA,25.79319954,-80.29060364,8.0,-5,A,America/New_York,North America,507.0,London Heathrow Airport,London,United Kingdom,LHR,EGLL,51.4706,-0.461941,83.0,0,E,Europe/London,Europe
4702,LH,3320,YEG,49,LHR,507,Y,0.0,763,49.0,Edmonton International Airport,Edmonton,Canada,YEG,CYEG,53.30970001,-113.5800018,2373.0,-7,A,America/Edmonton,North America,507.0,London Heathrow Airport,London,United Kingdom,LHR,EGLL,51.4706,-0.461941,83.0,0,E,Europe/London,Europe
4704,LH,3320,YOW,100,LHR,507,Y,0.0,763,100.0,Ottawa Macdonald-Cartier International Airport,Ottawa,Canada,YOW,CYOW,45.32249832,-75.66919708,374.0,-5,A,America/Toronto,North America,507.0,London Heathrow Airport,London,United Kingdom,LHR,EGLL,51.4706,-0.461941,83.0,0,E,Europe/London,Europe
4705,AA,24,YYC,178,LHR,507,Y,0.0,767,178.0,Calgary International Airport,Calgary,Canada,YYC,CYYC,51.11389923,-114.0199966,3557.0,-7,A,America/Edmonton,North America,507.0,London Heathrow Airport,London,United Kingdom,LHR,EGLL,51.4706,-0.461941,83.0,0,E,Europe/London,Europe
4707,AY,2350,YYC,178,LHR,507,Y,0.0,767,178.0,Calgary International Airport,Calgary,Canada,YYC,CYYC,51.11389923,-114.0199966,3557.0,-7,A,America/Edmonton,North America,507.0,London Heathrow Airport,London,United Kingdom,LHR,EGLL,51.4706,-0.461941,83.0,0,E,Europe/London,Europe
4709,IB,2822,YYC,178,LHR,507,Y,0.0,767,178.0,Calgary International Airport,Calgary,Canada,YYC,CYYC,51.11389923,-114.0199966,3557.0,-7,A,America/Edmonton,North America,507.0,London Heathrow Airport,London,United Kingdom,LHR,EGLL,51.4706,-0.461941,83.0,0,E,Europe/London,Europe
4710,LH,3320,YYC,178,LHR,507,Y,0.0,333,178.0,Calgary International Airport,Calgary,Canada,YYC,CYYC,51.11389923,-114.0199966,3557.0,-7,A,America/Edmonton,North America,507.0,London Heathrow Airport,London,United Kingdom,LHR,EGLL,51.4706,-0.461941,83.0,0,E,Europe/London,Europe
4714,AA,24,DEL,3093,LHR,507,Y,0.0,777,3093.0,Indira Gandhi International Airport,Delhi,India,DEL,VIDP,28.5665,77.103104,777.0,5.5,N,Asia/Calcutta,Asia,507.0,London Heathrow Airport,London,United Kingdom,LHR,EGLL,51.4706,-0.461941,83.0,0,E,Europe/London,Europe
4815,JL,2987,NRT,2279,LHR,507,Y,0.0,777,2279.0,Narita International Airport,Tokyo,Japan,NRT,RJAA,35.76470184,140.3860016,141.0,9,U,Asia/Tokyo,Asia,507.0,London Heathrow Airport,London,United Kingdom,LHR,EGLL,51.4706,-0.461941,83.0,0,E,Europe/London,Europe
4819,AA,24,CPT,797,LHR,507,Y,0.0,744 777,797.0,Cape Town International Airport,Cape Town,South Africa,CPT,FACT,-33.96480179,18.60169983,151.0,2,U,Africa/Johannesburg,Africa,507.0,London Heathrow Airport,London,United Kingdom,LHR,EGLL,51.4706,-0.461941,83.0,0,E,Europe/London,Europe
4821,IB,2822,CPT,797,LHR,507,Y,0.0,744,797.0,Cape Town International Airport,Cape Town,South Africa,CPT,FACT,-33.96480179,18.60169983,151.0,2,U,Africa/Johannesburg,Africa,507.0,London Heathrow Airport,London,United Kingdom,LHR,EGLL,51.4706,-0.461941,83.0,0,E,Europe/London,Europe
4822,AA,24,JNB,813,LHR,507,Y,0.0,380 744,813.0,OR Tambo International Airport,Johannesburg,South Africa,JNB,FAOR,-26.1392,28.246,5558.0,2,U,Africa/Johannesburg,Africa,507.0,London Heathrow Airport,London,United Kingdom,LHR,EGLL,51.4706,-0.461941,83.0,0,E,Europe/London,Europe
4828,AA,24,BLR,3131,LHR,507,Y,0.0,777,3131.0,Kempegowda International Airport,Bangalore,India,BLR,VOBL,13.1979,77.706299,3000.0,5.5,N,Asia/Calcutta,Asia,507.0,London Heathrow Airport,London,United Kingdom,LHR,EGLL,51.4706,-0.461941,83.0,0,E,Europe/London,Europe
4831,AA,24,BOM,2997,LHR,507,Y,0.0,777,2997.0,Chhatrapati Shivaji International Airport,Mumbai,India,BOM,VABB,19.08869934,72.86789703,39.0,5.5,N,Asia/Calcutta,Asia,507.0,London Heathrow Airport,London,United Kingdom,LHR,EGLL,51.4706,-0.461941,83.0,0,E,Europe/London,Europe
4835,AA,24,HYD,\N,LHR,507,Y,0.0,767,12087.0,Rajiv Gandhi International Airport,Hyderabad,India,HYD,VOHS,17.23131752,78.42985535,2024.0,5.5,N,\N,Asia,507.0,London Heathrow Airport,London,United Kingdom,LHR,EGLL,51.4706,-0.461941,83.0,0,E,Europe/London,Europe
4837,AA,24,MAA,3144,LHR,507,Y,0.0,777,3144.0,Chennai International Airport,Madras,India,MAA,VOMM,12.99000549,80.16929626,52.0,5.5,N,Asia/Calcutta,Asia,507.0,London Heathrow Airport,London,United Kingdom,LHR,EGLL,51.4706,-0.461941,83.0,0,E,Europe/London,Europe
4851,AA,24,IST,1701,LHR,507,Y,0.0,320,13696.0,Istanbul Airport,Istanbul,Turkey,IST,LTFM,41.275278,28.751944,325.0,3,E,\N,Asia,507.0,London Heathrow Airport,London,United Kingdom,LHR,EGLL,51.4706,-0.461941,83.0,0,E,Europe/London,Europe
4860,KL,3090,DTW,3645,LHR,507,Y,0.0,76W 777,3645.0,Detroit Metropolitan Wayne County Airport,Detroit,United States,DTW,KDTW,42.21239853,-83.35340118,645.0,-5,A,America/New_York,North America,507.0,London Heathrow Airport,London,United Kingdom,LHR,EGLL,51.4706,-0.461941,83.0,0,E,Europe/London,Europe
4862,AF,137,MSP,3858,LHR,507,Y,0.0,764,3858.0,Minneapolis-St Paul International/Wold-Chamberlain Airport,Minneapolis,United States,MSP,KMSP,44.882,-93.221802,841.0,-6,A,America/Chicago,North America,507.0,London Heathrow Airport,London,United Kingdom,LHR,EGLL,51.4706,-0.461941,83.0,0,E,Europe/London,Europe
4864,KL,3090,MSP,3858,LHR,507,Y,0.0,767,3858.0,Minneapolis-St Paul International/Wold-Chamberlain Airport,Minneapolis,United States,MSP,KMSP,44.882,-93.221802,841.0,-6,A,America/Chicago,North America,507.0,London Heathrow Airport,London,United Kingdom,LHR,EGLL,51.4706,-0.461941,83.0,0,E,Europe/London,Europe
4866,AA,24,BOS,3448,LHR,507,Y,0.0,777 744,3448.0,General Edward Lawrence Logan International Airport,Boston,United States,BOS,KBOS,42.36429977,-71.00520325,20.0,-5,A,America/New_York,North America,507.0,London Heathrow Airport,London,United Kingdom,LHR,EGLL,51.4706,-0.461941,83.0,0,E,Europe/London,Europe
4867,AF,137,BOS,3448,LHR,507,Y,0.0,764,3448.0,General Edward Lawrence Logan International Airport,Boston,United States,BOS,KBOS,42.36429977,-71.00520325,20.0,-5,A,America/New_York,North America,507.0,London Heathrow Airport,London,United Kingdom,LHR,EGLL,51.4706,-0.461941,83.0,0,E,Europe/London,Europe
4871,IB,2822,BOS,3448,LHR,507,Y,0.0,777 744,3448.0,General Edward Lawrence Logan International Airport,Boston,United States,BOS,KBOS,42.36429977,-71.00520325,20.0,-5,A,America/New_York,North America,507.0,London Heathrow Airport,London,United Kingdom,LHR,EGLL,51.4706,-0.461941,83.0,0,E,Europe/London,Europe
4872,KL,3090,BOS,3448,LHR,507,Y,0.0,767,3448.0,General Edward Lawrence Logan International Airport,Boston,United States,BOS,KBOS,42.36429977,-71.00520325,20.0,-5,A,America/New_York,North America,507.0,London Heathrow Airport,London,United Kingdom,LHR,EGLL,51.4706,-0.461941,83.0,0,E,Europe/London,Europe
4873,UN,5067,BOS,3448,LHR,507,Y,0.0,333,3448.0,General Edward Lawrence Logan International Airport,Boston,United States,BOS,KBOS,42.36429977,-71.00520325,20.0,-5,A,America/New_York,North America,507.0,London Heathrow Airport,London,United Kingdom,LHR,EGLL,51.4706,-0.461941,83.0,0,E,Europe/London,Europe
4879,AA,24,AUH,2179,LHR,507,Y,0.0,777,2179.0,Abu Dhabi International Airport,Abu Dhabi,United Arab Emirates,AUH,OMAA,24.43300056,54.65110016,88.0,4,U,Asia/Dubai,Asia,507.0,London Heathrow Airport,London,United Kingdom,LHR,EGLL,51.4706,-0.461941,83.0,0,E,Europe/London,Europe
4882,IB,2822,AUH,2179,LHR,507,Y,0.0,777,2179.0,Abu Dhabi International Airport,Abu Dhabi,United Arab Emirates,AUH,OMAA,24.43300056,54.65110016,88.0,4,U,Asia/Dubai,Asia,507.0,London Heathrow Airport,London,United Kingdom,LHR,EGLL,51.4706,-0.461941,83.0,0,E,Europe/London,Europe
4883,TP,4869,AUH,2179,LHR,507,Y,0.0,346,2179.0,Abu Dhabi International Airport,Abu Dhabi,United Arab Emirates,AUH,OMAA,24.43300056,54.65110016,88.0,4,U,Asia/Dubai,Asia,507.0,London Heathrow Airport,London,United Kingdom,LHR,EGLL,51.4706,-0.461941,83.0,0,E,Europe/London,Europe
4884,AA,24,BAH,2057,LHR,507,Y,0.0,777,2057.0,Bahrain International Airport,Bahrain,Bahrain,BAH,OBBI,26.27079964,50.63359833,6.0,3,U,Asia/Bahrain,Asia,507.0,London Heathrow Airport,London,United Kingdom,LHR,EGLL,51.4706,-0.461941,83.0,0,E,Europe/London,Europe
4887,IB,2822,BAH,2057,LHR,507,Y,0.0,777,2057.0,Bahrain International Airport,Bahrain,Bahrain,BAH,OBBI,26.27079964,50.63359833,6.0,3,U,Asia/Bahrain,Asia,507.0,London Heathrow Airport,London,United Kingdom,LHR,EGLL,51.4706,-0.461941,83.0,0,E,Europe/London,Europe
4891,AA,24,EWR,3494,LHR,507,Y,0.0,777 787,3494.0,Newark Liberty International Airport,Newark,United States,EWR,KEWR,40.69250107,-74.16870117,18.0,-5,A,America/New_York,North America,507.0,London Heathrow Airport,London,United Kingdom,LHR,EGLL,51.4706,-0.461941,83.0,0,E,Europe/London,Europe
4894,DL,2009,EWR,3494,LHR,507,Y,0.0,346 333,3494.0,Newark Liberty International Airport,Newark,United States,EWR,KEWR,40.69250107,-74.16870117,18.0,-5,A,America/New_York,North America,507.0,London Heathrow Airport,London,United Kingdom,LHR,EGLL,51.4706,-0.461941,83.0,0,E,Europe/London,Europe
4895,IB,2822,EWR,3494,LHR,507,Y,0.0,777 788,3494.0,Newark Liberty International Airport,Newark,United States,EWR,KEWR,40.69250107,-74.16870117,18.0,-5,A,America/New_York,North America,507.0,London Heathrow Airport,London,United Kingdom,LHR,EGLL,51.4706,-0.461941,83.0,0,E,Europe/London,Europe
4896,LH,3320,EWR,3494,LHR,507,Y,0.0,763 752 777,3494.0,Newark Liberty International Airport,Newark,United States,EWR,KEWR,40.69250107,-74.16870117,18.0,-5,A,America/New_York,North America,507.0,London Heathrow Airport,London,United Kingdom,LHR,EGLL,51.4706,-0.461941,83.0,0,E,Europe/London,Europe
4899,AA,24,KWI,2176,LHR,507,Y,0.0,744,2176.0,Kuwait International Airport,Kuwait,Kuwait,KWI,OKBK,29.22660065,47.96889877,206.0,3,U,Asia/Kuwait,Asia,507.0,London Heathrow Airport,London,United Kingdom,LHR,EGLL,51.4706,-0.461941,83.0,0,E,Europe/London,Europe
4904,AA,24,YYZ,193,LHR,507,Y,0.0,787 744,193.0,Lester B. Pearson International Airport,Toronto,Canada,YYZ,CYYZ,43.67720032,-79.63059998,569.0,-5,A,America/Toronto,North America,507.0,London Heathrow Airport,London,United Kingdom,LHR,EGLL,51.4706,-0.461941,83.0,0,E,Europe/London,Europe
4906,AY,2350,YYZ,193,LHR,507,Y,0.0,788 744,193.0,Lester B. Pearson International Airport,Toronto,Canada,YYZ,CYYZ,43.67720032,-79.63059998,569.0,-5,A,America/Toronto,North America,507.0,London Heathrow Airport,London,United Kingdom,LHR,EGLL,51.4706,-0.461941,83.0,0,E,Europe/London,Europe
4908,IB,2822,YYZ,193,LHR,507,Y,0.0,788 744,193.0,Lester B. Pearson International Airport,Toronto,Canada,YYZ,CYYZ,43.67720032,-79.63059998,569.0,-5,A,America/Toronto,North America,507.0,London Heathrow Airport,London,United Kingdom,LHR,EGLL,51.4706,-0.461941,83.0,0,E,Europe/London,Europe
4909,LH,3320,YYZ,193,LHR,507,Y,0.0,763 77L 77W 333,193.0,Lester B. Pearson International Airport,Toronto,Canada,YYZ,CYYZ,43.67720032,-79.63059998,569.0,-5,A,America/Toronto,North America,507.0,London Heathrow Airport,London,United Kingdom,LHR,EGLL,51.4706,-0.461941,83.0,0,E,Europe/London,Europe
4915,IB,2822,PHL,3752,LHR,507,Y,0.0,777 767,3752.0,Philadelphia International Airport,Philadelphia,United States,PHL,KPHL,39.87189865,-75.2410965,36.0,-5,A,America/New_York,North America,507.0,London Heathrow Airport,London,United Kingdom,LHR,EGLL,51.4706,-0.461941,83.0,0,E,Europe/London,Europe
4927,AA,24,EBB,1187,LHR,507,Y,0.0,767,1187.0,Entebbe International Airport,Entebbe,Uganda,EBB,HUEN,0.042386,32.443501,3782.0,3,U,Africa/Kampala,Africa,507.0,London Heathrow Airport,London,United Kingdom,LHR,EGLL,51.4706,-0.461941,83.0,0,E,Europe/London,Europe
4942,AA,24,BWI,3849,LHR,507,Y,0.0,767,3849.0,Baltimore/Washington International Thurgood Marshall Airport,Baltimore,United States,BWI,KBWI,39.1754,-76.668297,146.0,-5,A,America/New_York,North America,507.0,London Heathrow Airport,London,United Kingdom,LHR,EGLL,51.4706,-0.461941,83.0,0,E,Europe/London,Europe
4945,IB,2822,BWI,3849,LHR,507,Y,0.0,767,3849.0,Baltimore/Washington International Thurgood Marshall Airport,Baltimore,United States,BWI,KBWI,39.1754,-76.668297,146.0,-5,A,America/New_York,North America,507.0,London Heathrow Airport,London,United Kingdom,LHR,EGLL,51.4706,-0.461941,83.0,0,E,Europe/London,Europe
4946,AA,24,DEN,3751,LHR,507,Y,0.0,777,3751.0,Denver International Airport,Denver,United States,DEN,KDEN,39.86169815,-104.6729965,5431.0,-7,A,America/Denver,North America,507.0,London Heathrow Airport,London,United Kingdom,LHR,EGLL,51.4706,-0.461941,83.0,0,E,Europe/London,Europe
4949,IB,2822,DEN,3751,LHR,507,Y,0.0,777,3751.0,Denver International Airport,Denver,United States,DEN,KDEN,39.86169815,-104.6729965,5431.0,-7,A,America/Denver,North America,507.0,London Heathrow Airport,London,United Kingdom,LHR,EGLL,51.4706,-0.461941,83.0,0,E,Europe/London,Europe
4955,AA,24,IAD,3714,LHR,507,Y,0.0,744 777,3714.0,Washington Dulles International Airport,Washington,United States,IAD,KIAD,38.94449997,-77.45580292,312.0,-5,A,America/New_York,North America,507.0,London Heathrow Airport,London,United Kingdom,LHR,EGLL,51.4706,-0.461941,83.0,0,E,Europe/London,Europe
4958,DL,2009,IAD,3714,LHR,507,Y,0.0,333,3714.0,Washington Dulles International Airport,Washington,United States,IAD,KIAD,38.94449997,-77.45580292,312.0,-5,A,America/New_York,North America,507.0,London Heathrow Airport,London,United Kingdom,LHR,EGLL,51.4706,-0.461941,83.0,0,E,Europe/London,Europe
4959,IB,2822,IAD,3714,LHR,507,Y,0.0,744 777,3714.0,Washington Dulles International Airport,Washington,United States,IAD,KIAD,38.94449997,-77.45580292,312.0,-5,A,America/New_York,North America,507.0,London Heathrow Airport,London,United Kingdom,LHR,EGLL,51.4706,-0.461941,83.0,0,E,Europe/London,Europe
4960,LH,3320,IAD,3714,LHR,507,Y,0.0,752 777,3714.0,Washington Dulles International Airport,Washington,United States,IAD,KIAD,38.94449997,-77.45580292,312.0,-5,A,America/New_York,North America,507.0,London Heathrow Airport,London,United Kingdom,LHR,EGLL,51.4706,-0.461941,83.0,0,E,Europe/London,Europe
4963,AA,24,IAH,3550,LHR,507,Y,0.0,744 777,3550.0,George Bush Intercontinental Houston Airport,Houston,United States,IAH,KIAH,29.9843998,-95.34140015,97.0,-6,A,America/Chicago,North America,507.0,London Heathrow Airport,London,United Kingdom,LHR,EGLL,51.4706,-0.461941,83.0,0,E,Europe/London,Europe
4966,IB,2822,IAH,3550,LHR,507,Y,0.0,744 777,3550.0,George Bush Intercontinental Houston Airport,Houston,United States,IAH,KIAH,29.9843998,-95.34140015,97.0,-6,A,America/Chicago,North America,507.0,London Heathrow Airport,London,United Kingdom,LHR,EGLL,51.4706,-0.461941,83.0,0,E,Europe/London,Europe
4967,LH,3320,IAH,3550,LHR,507,Y,0.0,763 788,3550.0,George Bush Intercontinental Houston Airport,Houston,United States,IAH,KIAH,29.9843998,-95.34140015,97.0,-6,A,America/Chicago,North America,507.0,London Heathrow Airport,London,United Kingdom,LHR,EGLL,51.4706,-0.461941,83.0,0,E,Europe/London,Europe
4979,AA,24,PHX,3462,LHR,507,Y,0.0,744,3462.0,Phoenix Sky Harbor International Airport,Phoenix,United States,PHX,KPHX,33.43429947,-112.012001,1135.0,-7,N,America/Phoenix,North America,507.0,London Heathrow Airport,London,United Kingdom,LHR,EGLL,51.4706,-0.461941,83.0,0,E,Europe/London,Europe
4982,IB,2822,PHX,3462,LHR,507,Y,0.0,744,3462.0,Phoenix Sky Harbor International Airport,Phoenix,United States,PHX,KPHX,33.43429947,-112.012001,1135.0,-7,N,America/Phoenix,North America,507.0,London Heathrow Airport,London,United Kingdom,LHR,EGLL,51.4706,-0.461941,83.0,0,E,Europe/London,Europe
4984,AY,2350,RDU,3626,LHR,507,Y,0.0,763,3626.0,Raleigh Durham International Airport,Raleigh-durham,United States,RDU,KRDU,35.87760162,-78.78749847,435.0,-5,A,America/New_York,North America,507.0,London Heathrow Airport,London,United Kingdom,LHR,EGLL,51.4706,-0.461941,83.0,0,E,Europe/London,Europe
4985,BA,1355,RDU,3626,LHR,507,Y,0.0,763,3626.0,Raleigh Durham International Airport,Raleigh-durham,United States,RDU,KRDU,35.87760162,-78.78749847,435.0,-5,A,America/New_York,North America,507.0,London Heathrow Airport,London,United Kingdom,LHR,EGLL,51.4706,-0.461941,83.0,0,E,Europe/London,Europe
4986,IB,2822,RDU,3626,LHR,507,Y,0.0,763,3626.0,Raleigh Durham International Airport,Raleigh-durham,United States,RDU,KRDU,35.87760162,-78.78749847,435.0,-5,A,America/New_York,North America,507.0,London Heathrow Airport,London,United Kingdom,LHR,EGLL,51.4706,-0.461941,83.0,0,E,Europe/London,Europe
4991,AA,24,SAN,3731,LHR,507,Y,0.0,777,3731.0,San Diego International Airport,San Diego,United States,SAN,KSAN,32.73360062,-117.1900024,17.0,-8,A,America/Los_Angeles,North America,507.0,London Heathrow Airport,London,United Kingdom,LHR,EGLL,51.4706,-0.461941,83.0,0,E,Europe/London,Europe
4994,IB,2822,SAN,3731,LHR,507,Y,0.0,777,3731.0,San Diego International Airport,San Diego,United States,SAN,KSAN,32.73360062,-117.1900024,17.0,-8,A,America/Los_Angeles,North America,507.0,London Heathrow Airport,London,United Kingdom,LHR,EGLL,51.4706,-0.461941,83.0,0,E,Europe/London,Europe
5000,IB,2822,SEA,3577,LHR,507,Y,0.0,744,3577.0,Seattle Tacoma International Airport,Seattle,United States,SEA,KSEA,47.449001,-122.308998,433.0,-8,A,America/Los_Angeles,North America,507.0,London Heathrow Airport,London,United Kingdom,LHR,EGLL,51.4706,-0.461941,83.0,0,E,Europe/London,Europe
5001,KL,3090,SEA,3577,LHR,507,Y,0.0,76W,3577.0,Seattle Tacoma International Airport,Seattle,United States,SEA,KSEA,47.449001,-122.308998,433.0,-8,A,America/Los_Angeles,North America,507.0,London Heathrow Airport,London,United Kingdom,LHR,EGLL,51.4706,-0.461941,83.0,0,E,Europe/London,Europe
5003,AA,24,SFO,3469,LHR,507,Y,0.0,744,3469.0,San Francisco International Airport,San Francisco,United States,SFO,KSFO,37.61899948,-122.375,13.0,-8,A,America/Los_Angeles,North America,507.0,London Heathrow Airport,London,United Kingdom,LHR,EGLL,51.4706,-0.461941,83.0,0,E,Europe/London,Europe
5006,DL,2009,SFO,3469,LHR,507,Y,0.0,744,3469.0,San Francisco International Airport,San Francisco,United States,SFO,KSFO,37.61899948,-122.375,13.0,-8,A,America/Los_Angeles,North America,507.0,London Heathrow Airport,London,United Kingdom,LHR,EGLL,51.4706,-0.461941,83.0,0,E,Europe/London,Europe
5007,IB,2822,SFO,3469,LHR,507,Y,0.0,744,3469.0,San Francisco International Airport,San Francisco,United States,SFO,KSFO,37.61899948,-122.375,13.0,-8,A,America/Los_Angeles,North America,507.0,London Heathrow Airport,London,United Kingdom,LHR,EGLL,51.4706,-0.461941,83.0,0,E,Europe/London,Europe
5008,LH,3320,SFO,3469,LHR,507,Y,0.0,777,3469.0,San Francisco International Airport,San Francisco,United States,SFO,KSFO,37.61899948,-122.375,13.0,-8,A,America/Los_Angeles,North America,507.0,London Heathrow Airport,London,United Kingdom,LHR,EGLL,51.4706,-0.461941,83.0,0,E,Europe/London,Europe
5009,NZ,345,SFO,3469,LHR,507,Y,0.0,777,3469.0,San Francisco International Airport,San Francisco,United States,SFO,KSFO,37.61899948,-122.375,13.0,-8,A,America/Los_Angeles,North America,507.0,London Heathrow Airport,London,United Kingdom,LHR,EGLL,51.4706,-0.461941,83.0,0,E,Europe/London,Europe
5011,UN,5067,SFO,3469,LHR,507,Y,0.0,744,3469.0,San Francisco International Airport,San Francisco,United States,SFO,KSFO,37.61899948,-122.375,13.0,-8,A,America/Los_Angeles,North America,507.0,London Heathrow Airport,London,United Kingdom,LHR,EGLL,51.4706,-0.461941,83.0,0,E,Europe/London,Europe
5017,LH,3320,YHZ,73,LHR,507,Y,0.0,763,73.0,Halifax / Stanfield International Airport,Halifax,Canada,YHZ,CYHZ,44.88079834,-63.50859833,477.0,-4,A,America/Halifax,North America,507.0,London Heathrow Airport,London,United Kingdom,LHR,EGLL,51.4706,-0.461941,83.0,0,E,Europe/London,Europe
5021,IB,2822,LAD,951,LHR,507,Y,0.0,777,951.0,Quatro de Fevereiro Airport,Luanda,Angola,LAD,FNLU,-8.85837,13.2312,243.0,1,N,Africa/Luanda,Africa,507.0,London Heathrow Airport,London,United Kingdom,LHR,EGLL,51.4706,-0.461941,83.0,0,E,Europe/London,Europe
5023,LH,3320,YYT,189,LHR,507,Y,0.0,319,189.0,St. John's International Airport,St. John's,Canada,YYT,CYYT,47.61859894,-52.75189972,461.0,-3.5,A,America/St_Johns,North America,507.0,London Heathrow Airport,London,United Kingdom,LHR,EGLL,51.4706,-0.461941,83.0,0,E,Europe/London,Europe
5175,BT,333,TAS,2983,RIX,3953,Y,0.0,763,2983.0,Tashkent International Airport,Tashkent,Uzbekistan,TAS,UTTT,41.25790024,69.28119659,1417.0,5,U,Asia/Samarkand,Asia,3953.0,Riga International Airport,Riga,Latvia,RIX,EVRA,56.92359924,23.97109985,36.0,2,E,Europe/Riga,Europe
5187,AZ,596,GYD,2922,FCO,1555,Y,0.0,319,2922.0,Heydar Aliyev International Airport,Baku,Azerbaijan,GYD,UBBB,40.46749878,50.04669952,10.0,4,E,Asia/Baku,Asia,1555.0,Leonardo da VinciFiumicino Airport,Rome,Italy,FCO,LIRF,41.8002778,12.2388889,13.0,1,E,Europe/Rome,Europe
5216,BA,1355,ORD,3830,FCO,1555,Y,0.0,763,3830.0,Chicago O'Hare International Airport,Chicago,United States,ORD,KORD,41.9786,-87.9048,672.0,-6,A,America/Chicago,North America,1555.0,Leonardo da VinciFiumicino Airport,Rome,Italy,FCO,LIRF,41.8002778,12.2388889,13.0,1,E,Europe/Rome,Europe
5218,IB,2822,ORD,3830,FCO,1555,Y,0.0,763,3830.0,Chicago O'Hare International Airport,Chicago,United States,ORD,KORD,41.9786,-87.9048,672.0,-6,A,America/Chicago,North America,1555.0,Leonardo da VinciFiumicino Airport,Rome,Italy,FCO,LIRF,41.8002778,12.2388889,13.0,1,E,Europe/Rome,Europe
5244,AF,137,ATL,3682,FCO,1555,Y,0.0,333,3682.0,Hartsfield Jackson Atlanta International Airport,Atlanta,United States,ATL,KATL,33.6367,-84.428101,1026.0,-5,A,America/New_York,North America,1555.0,Leonardo da VinciFiumicino Airport,Rome,Italy,FCO,LIRF,41.8002778,12.2388889,13.0,1,E,Europe/Rome,Europe
5245,AM,321,ATL,3682,FCO,1555,Y,0.0,333,3682.0,Hartsfield Jackson Atlanta International Airport,Atlanta,United States,ATL,KATL,33.6367,-84.428101,1026.0,-5,A,America/New_York,North America,1555.0,Leonardo da VinciFiumicino Airport,Rome,Italy,FCO,LIRF,41.8002778,12.2388889,13.0,1,E,Europe/Rome,Europe
5246,AZ,596,ATL,3682,FCO,1555,Y,0.0,333,3682.0,Hartsfield Jackson Atlanta International Airport,Atlanta,United States,ATL,KATL,33.6367,-84.428101,1026.0,-5,A,America/New_York,North America,1555.0,Leonardo da VinciFiumicino Airport,Rome,Italy,FCO,LIRF,41.8002778,12.2388889,13.0,1,E,Europe/Rome,Europe
5248,KL,3090,ATL,3682,FCO,1555,Y,0.0,333,3682.0,Hartsfield Jackson Atlanta International Airport,Atlanta,United States,ATL,KATL,33.6367,-84.428101,1026.0,-5,A,America/New_York,North America,1555.0,Leonardo da VinciFiumicino Airport,Rome,Italy,FCO,LIRF,41.8002778,12.2388889,13.0,1,E,Europe/Rome,Europe
5274,AZ,596,PVG,3406,FCO,1555,Y,0.0,332,3406.0,Shanghai Pudong International Airport,Shanghai,China,PVG,ZSPD,31.14340019,121.8050003,13.0,8,U,Asia/Shanghai,Asia,1555.0,Leonardo da VinciFiumicino Airport,Rome,Italy,FCO,LIRF,41.8002778,12.2388889,13.0,1,E,Europe/Rome,Europe
5277,DL,2009,LAX,3484,FCO,1555,Y,0.0,772,3484.0,Los Angeles International Airport,Los Angeles,United States,LAX,KLAX,33.94250107,-118.4079971,125.0,-8,A,America/Los_Angeles,North America,1555.0,Leonardo da VinciFiumicino Airport,Rome,Italy,FCO,LIRF,41.8002778,12.2388889,13.0,1,E,Europe/Rome,Europe
5287,AZ,596,JED,2072,FCO,1555,Y,0.0,320,2072.0,King Abdulaziz International Airport,Jeddah,Saudi Arabia,JED,OEJN,21.6796,39.156502,48.0,3,U,Asia/Riyadh,Asia,1555.0,Leonardo da VinciFiumicino Airport,Rome,Italy,FCO,LIRF,41.8002778,12.2388889,13.0,1,E,Europe/Rome,Europe
5292,AY,2350,JFK,3797,FCO,1555,Y,0.0,763,3797.0,John F Kennedy International Airport,New York,United States,JFK,KJFK,40.63980103,-73.77890015,13.0,-5,A,America/New_York,North America,1555.0,Leonardo da VinciFiumicino Airport,Rome,Italy,FCO,LIRF,41.8002778,12.2388889,13.0,1,E,Europe/Rome,Europe
5294,BA,1355,JFK,3797,FCO,1555,Y,0.0,763,3797.0,John F Kennedy International Airport,New York,United States,JFK,KJFK,40.63980103,-73.77890015,13.0,-5,A,America/New_York,North America,1555.0,Leonardo da VinciFiumicino Airport,Rome,Italy,FCO,LIRF,41.8002778,12.2388889,13.0,1,E,Europe/Rome,Europe
5296,IB,2822,JFK,3797,FCO,1555,Y,0.0,763,3797.0,John F Kennedy International Airport,New York,United States,JFK,KJFK,40.63980103,-73.77890015,13.0,-5,A,America/New_York,North America,1555.0,Leonardo da VinciFiumicino Airport,Rome,Italy,FCO,LIRF,41.8002778,12.2388889,13.0,1,E,Europe/Rome,Europe
5299,DL,2009,MIA,3576,FCO,1555,Y,0.0,772 330,3576.0,Miami International Airport,Miami,United States,MIA,KMIA,25.79319954,-80.29060364,8.0,-5,A,America/New_York,North America,1555.0,Leonardo da VinciFiumicino Airport,Rome,Italy,FCO,LIRF,41.8002778,12.2388889,13.0,1,E,Europe/Rome,Europe
5301,CU,1936,CUN,1852,FCO,1555,Y,0.0,767,1852.0,Cancún International Airport,Cancun,Mexico,CUN,MMUN,21.03650093,-86.87709808,22.0,-5,S,America/Cancun,North America,1555.0,Leonardo da VinciFiumicino Airport,Rome,Italy,FCO,LIRF,41.8002778,12.2388889,13.0,1,E,Europe/Rome,Europe
5302,AZ,596,DEL,3093,FCO,1555,Y,0.0,333,3093.0,Indira Gandhi International Airport,Delhi,India,DEL,VIDP,28.5665,77.103104,777.0,5.5,N,Asia/Calcutta,Asia,1555.0,Leonardo da VinciFiumicino Airport,Rome,Italy,FCO,LIRF,41.8002778,12.2388889,13.0,1,E,Europe/Rome,Europe
5419,IG,3463,AMM,2170,FCO,1555,Y,0.0,320,2170.0,Queen Alia International Airport,Amman,Jordan,AMM,OJAI,31.72260094,35.99319839,2395.0,2,E,Asia/Amman,Asia,1555.0,Leonardo da VinciFiumicino Airport,Rome,Italy,FCO,LIRF,41.8002778,12.2388889,13.0,1,E,Europe/Rome,Europe
5424,DL,2009,BOS,3448,FCO,1555,Y,0.0,330 332,3448.0,General Edward Lawrence Logan International Airport,Boston,United States,BOS,KBOS,42.36429977,-71.00520325,20.0,-5,A,America/New_York,North America,1555.0,Leonardo da VinciFiumicino Airport,Rome,Italy,FCO,LIRF,41.8002778,12.2388889,13.0,1,E,Europe/Rome,Europe
5433,EY,2222,AUH,2179,FCO,1555,Y,0.0,330,2179.0,Abu Dhabi International Airport,Abu Dhabi,United Arab Emirates,AUH,OMAA,24.43300056,54.65110016,88.0,4,U,Asia/Dubai,Asia,1555.0,Leonardo da VinciFiumicino Airport,Rome,Italy,FCO,LIRF,41.8002778,12.2388889,13.0,1,E,Europe/Rome,Europe
5434,AZ,596,CMB,3024,FCO,1555,Y,0.0,332 343,3024.0,Bandaranaike International Colombo Airport,Colombo,Sri Lanka,CMB,VCBI,7.180759907,79.88410187,30.0,5.5,U,Asia/Colombo,Asia,1555.0,Leonardo da VinciFiumicino Airport,Rome,Italy,FCO,LIRF,41.8002778,12.2388889,13.0,1,E,Europe/Rome,Europe
5438,LH,3320,EWR,3494,FCO,1555,Y,0.0,764,3494.0,Newark Liberty International Airport,Newark,United States,EWR,KEWR,40.69250107,-74.16870117,18.0,-5,A,America/New_York,North America,1555.0,Leonardo da VinciFiumicino Airport,Rome,Italy,FCO,LIRF,41.8002778,12.2388889,13.0,1,E,Europe/Rome,Europe
5440,AZ,596,KWI,2176,FCO,1555,Y,0.0,340,2176.0,Kuwait International Airport,Kuwait,Kuwait,KWI,OKBK,29.22660065,47.96889877,206.0,3,U,Asia/Kuwait,Asia,1555.0,Leonardo da VinciFiumicino Airport,Rome,Italy,FCO,LIRF,41.8002778,12.2388889,13.0,1,E,Europe/Rome,Europe
5442,AZ,596,RUH,2082,FCO,1555,Y,0.0,320,2082.0,King Khaled International Airport,Riyadh,Saudi Arabia,RUH,OERK,24.95759964,46.69879913,2049.0,3,U,Asia/Riyadh,Asia,1555.0,Leonardo da VinciFiumicino Airport,Rome,Italy,FCO,LIRF,41.8002778,12.2388889,13.0,1,E,Europe/Rome,Europe
5446,DL,2009,YYZ,193,FCO,1555,Y,0.0,332,193.0,Lester B. Pearson International Airport,Toronto,Canada,YYZ,CYYZ,43.67720032,-79.63059998,569.0,-5,A,America/Toronto,North America,1555.0,Leonardo da VinciFiumicino Airport,Rome,Italy,FCO,LIRF,41.8002778,12.2388889,13.0,1,E,Europe/Rome,Europe
5447,LH,3320,YYZ,193,FCO,1555,Y,0.0,333,193.0,Lester B. Pearson International Airport,Toronto,Canada,YYZ,CYYZ,43.67720032,-79.63059998,569.0,-5,A,America/Toronto,North America,1555.0,Leonardo da VinciFiumicino Airport,Rome,Italy,FCO,LIRF,41.8002778,12.2388889,13.0,1,E,Europe/Rome,Europe
5511,CU,1936,SCU,1905,FCO,1555,Y,0.0,767,1905.0,Antonio Maceo International Airport,Santiago De Cuba,Cuba,SCU,MUCU,19.96980095,-75.83540344,249.0,-5,U,America/Havana,North America,1555.0,Leonardo da VinciFiumicino Airport,Rome,Italy,FCO,LIRF,41.8002778,12.2388889,13.0,1,E,Europe/Rome,Europe
5524,DY,3737,ARN,737,BKK,3885,Y,0.0,788,737.0,Stockholm-Arlanda Airport,Stockholm,Sweden,ARN,ESSA,59.65190125,17.91860008,137.0,1,E,Europe/Stockholm,Europe,3885.0,Suvarnabhumi Airport,Bangkok,Thailand,BKK,VTBS,13.68109989,100.7470016,5.0,7,U,Asia/Bangkok,Asia
5527,DY,3737,OSL,644,BKK,3885,Y,0.0,788,644.0,Oslo Lufthavn,Oslo,Norway,OSL,ENGM,60.121,11.0502,681.0,1,E,Europe/Oslo,Europe,3885.0,Suvarnabhumi Airport,Bangkok,Thailand,BKK,VTBS,13.68109989,100.7470016,5.0,7,U,Asia/Bangkok,Asia
5536,VN,5309,NBO,4059,BKK,3885,Y,0.0,767,4059.0,Jomo Kenyatta International Airport,Nairobi,Kenya,NBO,HKJK,-1.319239974,36.92779922,5330.0,3,N,Africa/Nairobi,Africa,3885.0,Suvarnabhumi Airport,Bangkok,Thailand,BKK,VTBS,13.68109989,100.7470016,5.0,7,U,Asia/Bangkok,Asia
5578,TK,4951,PER,3351,BKK,3885,Y,0.0,330,3351.0,Perth International Airport,Perth,Australia,PER,YPPH,-31.94029999,115.9670029,67.0,8,N,Australia/Perth,Oceania,3885.0,Suvarnabhumi Airport,Bangkok,Thailand,BKK,VTBS,13.68109989,100.7470016,5.0,7,U,Asia/Bangkok,Asia
5609,LH,3320,MUC,346,BKK,3885,Y,0.0,747,346.0,Munich Airport,Munich,Germany,MUC,EDDM,48.353802,11.7861,1487.0,1,E,Europe/Berlin,Europe,3885.0,Suvarnabhumi Airport,Bangkok,Thailand,BKK,VTBS,13.68109989,100.7470016,5.0,7,U,Asia/Bangkok,Asia
5614,SN,1531,BRU,302,BKK,3885,Y,0.0,773,302.0,Brussels Airport,Brussels,Belgium,BRU,EBBR,50.90140152,4.48443985,184.0,1,E,Europe/Brussels,Europe,3885.0,Suvarnabhumi Airport,Bangkok,Thailand,BKK,VTBS,13.68109989,100.7470016,5.0,7,U,Asia/Bangkok,Asia
5645,TK,4951,MEL,3339,BKK,3885,Y,0.0,773 777,3339.0,Melbourne International Airport,Melbourne,Australia,MEL,YMML,-37.673302,144.843002,434.0,10,O,Australia/Hobart,Oceania,3885.0,Suvarnabhumi Airport,Bangkok,Thailand,BKK,VTBS,13.68109989,100.7470016,5.0,7,U,Asia/Bangkok,Asia
5660,TK,4951,SYD,3361,BKK,3885,Y,0.0,747,3361.0,Sydney Kingsford Smith International Airport,Sydney,Australia,SYD,YSSY,-33.94609833,151.177002,21.0,10,O,Australia/Sydney,Oceania,3885.0,Suvarnabhumi Airport,Bangkok,Thailand,BKK,VTBS,13.68109989,100.7470016,5.0,7,U,Asia/Bangkok,Asia
5669,MH,3378,CAI,1128,BKK,3885,Y,0.0,773,1128.0,Cairo International Airport,Cairo,Egypt,CAI,HECA,30.12190056,31.40559959,382.0,2,U,Africa/Cairo,Africa,3885.0,Suvarnabhumi Airport,Bangkok,Thailand,BKK,VTBS,13.68109989,100.7470016,5.0,7,U,Asia/Bangkok,Asia
5695,AZ,596,CDG,1382,BKK,3885,Y,0.0,77W,1382.0,Charles de Gaulle International Airport,Paris,France,CDG,LFPG,49.012798,2.55,392.0,1,E,Europe/Paris,Europe,3885.0,Suvarnabhumi Airport,Bangkok,Thailand,BKK,VTBS,13.68109989,100.7470016,5.0,7,U,Asia/Bangkok,Asia
5703,IB,2822,LHR,507,BKK,3885,Y,0.0,777,507.0,London Heathrow Airport,London,United Kingdom,LHR,EGLL,51.4706,-0.461941,83.0,0,E,Europe/London,Europe,3885.0,Suvarnabhumi Airport,Bangkok,Thailand,BKK,VTBS,13.68109989,100.7470016,5.0,7,U,Asia/Bangkok,Asia
5709,TG,4940,VIE,1613,BKK,3885,Y,0.0,772,1613.0,Vienna International Airport,Vienna,Austria,VIE,LOWW,48.11029816,16.56970024,600.0,1,E,Europe/Vienna,Europe,3885.0,Suvarnabhumi Airport,Bangkok,Thailand,BKK,VTBS,13.68109989,100.7470016,5.0,7,U,Asia/Bangkok,Asia
5739,SA,4305,JNB,813,BKK,3885,Y,0.0,777,813.0,OR Tambo International Airport,Johannesburg,South Africa,JNB,FAOR,-26.1392,28.246,5558.0,2,U,Africa/Johannesburg,Africa,3885.0,Suvarnabhumi Airport,Bangkok,Thailand,BKK,VTBS,13.68109989,100.7470016,5.0,7,U,Asia/Bangkok,Asia
5795,TK,4951,AKL,2006,BKK,3885,Y,0.0,777,2006.0,Auckland International Airport,Auckland,New Zealand,AKL,NZAA,-37.0080986,174.7920074,23.0,12,Z,Pacific/Auckland,Oceania,3885.0,Suvarnabhumi Airport,Bangkok,Thailand,BKK,VTBS,13.68109989,100.7470016,5.0,7,U,Asia/Bangkok,Asia
5797,TK,4951,BNE,3320,BKK,3885,Y,0.0,773,3320.0,Brisbane International Airport,Brisbane,Australia,BNE,YBBN,-27.38419914,153.1170044,13.0,10,N,Australia/Brisbane,Oceania,3885.0,Suvarnabhumi Airport,Bangkok,Thailand,BKK,VTBS,13.68109989,100.7470016,5.0,7,U,Asia/Bangkok,Asia
5815,TG,4940,TNR,918,BKK,3885,Y,0.0,343,918.0,Ivato Airport,Antananarivo,Madagascar,TNR,FMMI,-18.7969,47.478802,4198.0,3,U,Indian/Antananarivo,Africa,3885.0,Suvarnabhumi Airport,Bangkok,Thailand,BKK,VTBS,13.68109989,100.7470016,5.0,7,U,Asia/Bangkok,Asia
5849,S7,4329,OVB,4078,HKG,3077,Y,0.0,738,4078.0,Tolmachevo Airport,Novosibirsk,Russia,OVB,UNNT,55.01259995,82.65070343,365.0,7,N,Asia/Krasnoyarsk,Europe,3077.0,Hong Kong International Airport,Hong Kong,Hong Kong,HKG,VHHH,22.308901,113.915001,28.0,8,U,Asia/Hong_Kong,Asia
5855,AA,24,ORD,3830,HKG,3077,Y,0.0,773,3830.0,Chicago O'Hare International Airport,Chicago,United States,ORD,KORD,41.9786,-87.9048,672.0,-6,A,America/Chicago,North America,3077.0,Hong Kong International Airport,Hong Kong,Hong Kong,HKG,VHHH,22.308901,113.915001,28.0,8,U,Asia/Hong_Kong,Asia
6001,AY,2350,SYD,3361,HKG,3077,Y,0.0,388 744,3361.0,Sydney Kingsford Smith International Airport,Sydney,Australia,SYD,YSSY,-33.94609833,151.177002,21.0,10,O,Australia/Sydney,Oceania,3077.0,Hong Kong International Airport,Hong Kong,Hong Kong,HKG,VHHH,22.308901,113.915001,28.0,8,U,Asia/Hong_Kong,Asia
6004,VA,5360,SYD,3361,HKG,3077,Y,0.0,346,3361.0,Sydney Kingsford Smith International Airport,Sydney,Australia,SYD,YSSY,-33.94609833,151.177002,21.0,10,O,Australia/Sydney,Oceania,3077.0,Hong Kong International Airport,Hong Kong,Hong Kong,HKG,VHHH,22.308901,113.915001,28.0,8,U,Asia/Hong_Kong,Asia
6038,AA,24,LAX,3484,HKG,3077,Y,0.0,773,3484.0,Los Angeles International Airport,Los Angeles,United States,LAX,KLAX,33.94250107,-118.4079971,125.0,-8,A,America/Los_Angeles,North America,3077.0,Hong Kong International Airport,Hong Kong,Hong Kong,HKG,VHHH,22.308901,113.915001,28.0,8,U,Asia/Hong_Kong,Asia
6049,AA,24,JFK,3797,HKG,3077,Y,0.0,773,3797.0,John F Kennedy International Airport,New York,United States,JFK,KJFK,40.63980103,-73.77890015,13.0,-5,A,America/New_York,North America,3077.0,Hong Kong International Airport,Hong Kong,Hong Kong,HKG,VHHH,22.308901,113.915001,28.0,8,U,Asia/Hong_Kong,Asia
6057,AZ,596,CDG,1382,HKG,3077,Y,0.0,77W,1382.0,Charles de Gaulle International Airport,Paris,France,CDG,LFPG,49.012798,2.55,392.0,1,E,Europe/Paris,Europe,3077.0,Hong Kong International Airport,Hong Kong,Hong Kong,HKG,VHHH,22.308901,113.915001,28.0,8,U,Asia/Hong_Kong,Asia
6145,AA,24,EWR,3494,HKG,3077,Y,0.0,773,3494.0,Newark Liberty International Airport,Newark,United States,EWR,KEWR,40.69250107,-74.16870117,18.0,-5,A,America/New_York,North America,3077.0,Hong Kong International Airport,Hong Kong,Hong Kong,HKG,VHHH,22.308901,113.915001,28.0,8,U,Asia/Hong_Kong,Asia
6157,AY,2350,CNS,3322,HKG,3077,Y,0.0,333,3322.0,Cairns International Airport,Cairns,Australia,CNS,YBCS,-16.88579941,145.7550049,10.0,10,N,Australia/Brisbane,Oceania,3077.0,Hong Kong International Airport,Hong Kong,Hong Kong,HKG,VHHH,22.308901,113.915001,28.0,8,U,Asia/Hong_Kong,Asia
6158,BA,1355,CNS,3322,HKG,3077,Y,0.0,333,3322.0,Cairns International Airport,Cairns,Australia,CNS,YBCS,-16.88579941,145.7550049,10.0,10,N,Australia/Brisbane,Oceania,3077.0,Hong Kong International Airport,Hong Kong,Hong Kong,HKG,VHHH,22.308901,113.915001,28.0,8,U,Asia/Hong_Kong,Asia
6162,CX,1680,NAN,1960,HKG,3077,Y,0.0,332,1960.0,Nadi International Airport,Nandi,Fiji,NAN,NFFN,-17.7553997,177.4429932,59.0,12,U,Pacific/Fiji,Oceania,3077.0,Hong Kong International Airport,Hong Kong,Hong Kong,HKG,VHHH,22.308901,113.915001,28.0,8,U,Asia/Hong_Kong,Asia
6164,AA,24,SFO,3469,HKG,3077,Y,0.0,773 744,3469.0,San Francisco International Airport,San Francisco,United States,SFO,KSFO,37.61899948,-122.375,13.0,-8,A,America/Los_Angeles,North America,3077.0,Hong Kong International Airport,Hong Kong,Hong Kong,HKG,VHHH,22.308901,113.915001,28.0,8,U,Asia/Hong_Kong,Asia
6165,AI,218,SFO,3469,HKG,3077,Y,0.0,77W,3469.0,San Francisco International Airport,San Francisco,United States,SFO,KSFO,37.61899948,-122.375,13.0,-8,A,America/Los_Angeles,North America,3077.0,Hong Kong International Airport,Hong Kong,Hong Kong,HKG,VHHH,22.308901,113.915001,28.0,8,U,Asia/Hong_Kong,Asia
6241,QF,4089,GVA,1665,DXB,2188,Y,0.0,77L 77W,1665.0,Geneva Cointrin International Airport,Geneva,Switzerland,GVA,LSGG,46.23809814,6.108950138,1411.0,1,E,Europe/Paris,Europe,2188.0,Dubai International Airport,Dubai,United Arab Emirates,DXB,OMDB,25.25279999,55.36439896,62.0,4,U,Asia/Dubai,Asia
6245,QF,4089,ZRH,1678,DXB,2188,Y,0.0,388 77W,1678.0,Zürich Airport,Zurich,Switzerland,ZRH,LSZH,47.464699,8.54917,1416.0,1,E,Europe/Zurich,Europe,2188.0,Dubai International Airport,Dubai,United Arab Emirates,DXB,OMDB,25.25279999,55.36439896,62.0,4,U,Asia/Dubai,Asia
6247,QF,4089,ARN,737,DXB,2188,Y,0.0,77W,737.0,Stockholm-Arlanda Airport,Stockholm,Sweden,ARN,ESSA,59.65190125,17.91860008,137.0,1,E,Europe/Stockholm,Europe,2188.0,Dubai International Airport,Dubai,United Arab Emirates,DXB,OMDB,25.25279999,55.36439896,62.0,4,U,Asia/Dubai,Asia
6255,QF,4089,LGW,502,DXB,2188,Y,0.0,77W 388,502.0,London Gatwick Airport,London,United Kingdom,LGW,EGKK,51.148102,-0.190278,202.0,0,E,Europe/London,Europe,2188.0,Dubai International Airport,Dubai,United Arab Emirates,DXB,OMDB,25.25279999,55.36439896,62.0,4,U,Asia/Dubai,Asia
6262,KL,3090,NBO,4059,DXB,2188,Y,0.0,767,4059.0,Jomo Kenyatta International Airport,Nairobi,Kenya,NBO,HKJK,-1.319239974,36.92779922,5330.0,3,N,Africa/Nairobi,Africa,2188.0,Dubai International Airport,Dubai,United Arab Emirates,DXB,OMDB,25.25279999,55.36439896,62.0,4,U,Asia/Dubai,Asia
6264,QF,4089,NBO,4059,DXB,2188,Y,0.0,77W 77L,4059.0,Jomo Kenyatta International Airport,Nairobi,Kenya,NBO,HKJK,-1.319239974,36.92779922,5330.0,3,N,Africa/Nairobi,Africa,2188.0,Dubai International Airport,Dubai,United Arab Emirates,DXB,OMDB,25.25279999,55.36439896,62.0,4,U,Asia/Dubai,Asia
6277,QF,4089,PER,3351,DXB,2188,Y,0.0,77W,3351.0,Perth International Airport,Perth,Australia,PER,YPPH,-31.94029999,115.9670029,67.0,8,N,Australia/Perth,Oceania,2188.0,Dubai International Airport,Dubai,United Arab Emirates,DXB,OMDB,25.25279999,55.36439896,62.0,4,U,Asia/Dubai,Asia
6286,QF,4089,DUS,345,DXB,2188,Y,0.0,77W,345.0,Düsseldorf Airport,Duesseldorf,Germany,DUS,EDDL,51.289501,6.76678,147.0,1,E,Europe/Berlin,Europe,2188.0,Dubai International Airport,Dubai,United Arab Emirates,DXB,OMDB,25.25279999,55.36439896,62.0,4,U,Asia/Dubai,Asia
6288,QF,4089,HAM,342,DXB,2188,Y,0.0,77W,342.0,Hamburg Airport,Hamburg,Germany,HAM,EDDH,53.63040161,9.988229752,53.0,1,E,Europe/Berlin,Europe,2188.0,Dubai International Airport,Dubai,United Arab Emirates,DXB,OMDB,25.25279999,55.36439896,62.0,4,U,Asia/Dubai,Asia
6291,QF,4089,MUC,346,DXB,2188,Y,0.0,388,346.0,Munich Airport,Munich,Germany,MUC,EDDM,48.353802,11.7861,1487.0,1,E,Europe/Berlin,Europe,2188.0,Dubai International Airport,Dubai,United Arab Emirates,DXB,OMDB,25.25279999,55.36439896,62.0,4,U,Asia/Dubai,Asia
6293,AZ,596,AMS,580,DXB,2188,Y,0.0,777,580.0,Amsterdam Airport Schiphol,Amsterdam,Netherlands,AMS,EHAM,52.308601,4.76389,-11.0,1,E,Europe/Amsterdam,Europe,2188.0,Dubai International Airport,Dubai,United Arab Emirates,DXB,OMDB,25.25279999,55.36439896,62.0,4,U,Asia/Dubai,Asia
6355,QF,4089,BHX,469,DXB,2188,Y,0.0,77W,469.0,Birmingham International Airport,Birmingham,United Kingdom,BHX,EGBB,52.45389938,-1.748029947,327.0,0,E,Europe/London,Europe,2188.0,Dubai International Airport,Dubai,United Arab Emirates,DXB,OMDB,25.25279999,55.36439896,62.0,4,U,Asia/Dubai,Asia
6357,AZ,596,CDG,1382,DXB,2188,Y,0.0,77W,1382.0,Charles de Gaulle International Airport,Paris,France,CDG,LFPG,49.012798,2.55,392.0,1,E,Europe/Paris,Europe,2188.0,Dubai International Airport,Dubai,United Arab Emirates,DXB,OMDB,25.25279999,55.36439896,62.0,4,U,Asia/Dubai,Asia
6360,QF,4089,DUB,599,DXB,2188,Y,0.0,77W,599.0,Dublin Airport,Dublin,Ireland,DUB,EIDW,53.421299,-6.27007,242.0,0,E,Europe/Dublin,Europe,2188.0,Dubai International Airport,Dubai,United Arab Emirates,DXB,OMDB,25.25279999,55.36439896,62.0,4,U,Asia/Dubai,Asia
6364,QF,4089,FRA,340,DXB,2188,Y,0.0,77W,340.0,Frankfurt am Main Airport,Frankfurt,Germany,FRA,EDDF,50.033333,8.570556,364.0,1,E,Europe/Berlin,Europe,2188.0,Dubai International Airport,Dubai,United Arab Emirates,DXB,OMDB,25.25279999,55.36439896,62.0,4,U,Asia/Dubai,Asia
6365,AA,24,LHR,507,DXB,2188,Y,0.0,744 777,507.0,London Heathrow Airport,London,United Kingdom,LHR,EGLL,51.4706,-0.461941,83.0,0,E,Europe/London,Europe,2188.0,Dubai International Airport,Dubai,United Arab Emirates,DXB,OMDB,25.25279999,55.36439896,62.0,4,U,Asia/Dubai,Asia
6372,TP,4869,LIS,1638,DXB,2188,Y,0.0,77W,1638.0,Humberto Delgado Airport (Lisbon Portela Airport),Lisbon,Portugal,LIS,LPPT,38.7813,-9.13592,374.0,0,E,Europe/Lisbon,Europe,2188.0,Dubai International Airport,Dubai,United Arab Emirates,DXB,OMDB,25.25279999,55.36439896,62.0,4,U,Asia/Dubai,Asia
6375,QF,4089,MAN,478,DXB,2188,Y,0.0,77W 388,478.0,Manchester Airport,Manchester,United Kingdom,MAN,EGCC,53.35369873,-2.274950027,257.0,0,E,Europe/London,Europe,2188.0,Dubai International Airport,Dubai,United Arab Emirates,DXB,OMDB,25.25279999,55.36439896,62.0,4,U,Asia/Dubai,Asia
6380,QF,4089,PRG,1587,DXB,2188,Y,0.0,77W,1587.0,Václav Havel Airport Prague,Prague,Slovenia,PRG,LKPR,50.1008,14.26,1247.0,1,E,Europe/Prague,Europe,2188.0,Dubai International Airport,Dubai,United Arab Emirates,DXB,OMDB,25.25279999,55.36439896,62.0,4,U,Asia/Dubai,Asia
6385,OS,491,VIE,1613,DXB,2188,Y,0.0,763,1613.0,Vienna International Airport,Vienna,Austria,VIE,LOWW,48.11029816,16.56970024,600.0,1,E,Europe/Vienna,Europe,2188.0,Dubai International Airport,Dubai,United Arab Emirates,DXB,OMDB,25.25279999,55.36439896,62.0,4,U,Asia/Dubai,Asia
6387,QF,4089,WAW,679,DXB,2188,Y,0.0,332,679.0,Warsaw Chopin Airport,Warsaw,Poland,WAW,EPWA,52.16569901,20.96710014,362.0,1,E,Europe/Warsaw,Europe,2188.0,Dubai International Airport,Dubai,United Arab Emirates,DXB,OMDB,25.25279999,55.36439896,62.0,4,U,Asia/Dubai,Asia
6394,KQ,3126,SVO,2985,DXB,2188,Y,0.0,320,2985.0,Sheremetyevo International Airport,Moscow,Russia,SVO,UUEE,55.972599,37.4146,622.0,3,N,Europe/Moscow,Europe,2188.0,Dubai International Airport,Dubai,United Arab Emirates,DXB,OMDB,25.25279999,55.36439896,62.0,4,U,Asia/Dubai,Asia
6397,SA,4305,CPT,797,DXB,2188,Y,0.0,77W,797.0,Cape Town International Airport,Cape Town,South Africa,CPT,FACT,-33.96480179,18.60169983,151.0,2,U,Africa/Johannesburg,Africa,2188.0,Dubai International Airport,Dubai,United Arab Emirates,DXB,OMDB,25.25279999,55.36439896,62.0,4,U,Asia/Dubai,Asia
6399,SA,4305,JNB,813,DXB,2188,Y,0.0,77W,813.0,OR Tambo International Airport,Johannesburg,South Africa,JNB,FAOR,-26.1392,28.246,5558.0,2,U,Africa/Johannesburg,Africa,2188.0,Dubai International Airport,Dubai,United Arab Emirates,DXB,OMDB,25.25279999,55.36439896,62.0,4,U,Asia/Dubai,Asia
6423,QF,4089,CPH,609,DXB,2188,Y,0.0,77W,609.0,Copenhagen Kastrup Airport,Copenhagen,Denmark,CPH,EKCH,55.61790085,12.65600014,17.0,1,E,Europe/Copenhagen,Europe,2188.0,Dubai International Airport,Dubai,United Arab Emirates,DXB,OMDB,25.25279999,55.36439896,62.0,4,U,Asia/Dubai,Asia
6488,QF,4089,ADL,3341,DXB,2188,Y,0.0,77W,3341.0,Adelaide International Airport,Adelaide,Australia,ADL,YPAD,-34.945,138.531006,20.0,9.5,O,Australia/Adelaide,Oceania,2188.0,Dubai International Airport,Dubai,United Arab Emirates,DXB,OMDB,25.25279999,55.36439896,62.0,4,U,Asia/Dubai,Asia
6490,QF,4089,BNE,3320,DXB,2188,Y,0.0,388,3320.0,Brisbane International Airport,Brisbane,Australia,BNE,YBBN,-27.38419914,153.1170044,13.0,10,N,Australia/Brisbane,Oceania,2188.0,Dubai International Airport,Dubai,United Arab Emirates,DXB,OMDB,25.25279999,55.36439896,62.0,4,U,Asia/Dubai,Asia
6492,QF,4089,GLA,534,DXB,2188,Y,0.0,77W 77L,534.0,Glasgow International Airport,Glasgow,United Kingdom,GLA,EGPF,55.87189865,-4.433060169,26.0,0,E,Europe/London,Europe,2188.0,Dubai International Airport,Dubai,United Arab Emirates,DXB,OMDB,25.25279999,55.36439896,62.0,4,U,Asia/Dubai,Asia
6502,QF,4089,NCL,521,DXB,2188,Y,0.0,77W,521.0,Newcastle Airport,Newcastle,United Kingdom,NCL,EGNT,55.03749847,-1.691669941,266.0,0,E,Europe/London,Europe,2188.0,Dubai International Airport,Dubai,United Arab Emirates,DXB,OMDB,25.25279999,55.36439896,62.0,4,U,Asia/Dubai,Asia
6518,MK,1057,MRU,893,DXB,2188,Y,0.0,388 77W,893.0,Sir Seewoosagur Ramgoolam International Airport,Plaisance,Mauritius,MRU,FIMP,-20.430201,57.683601,186.0,4,N,Indian/Mauritius,Africa,2188.0,Dubai International Airport,Dubai,United Arab Emirates,DXB,OMDB,25.25279999,55.36439896,62.0,4,U,Asia/Dubai,Asia
6541,SA,4305,DUR,799,DXB,2188,Y,0.0,77W,799.0,King Shaka International Airport,Durban,South Africa,DUR,FALE,-29.61444444,31.11972222,295.0,2,U,Africa/Johannesburg,Africa,2188.0,Dubai International Airport,Dubai,United Arab Emirates,DXB,OMDB,25.25279999,55.36439896,62.0,4,U,Asia/Dubai,Asia
6583,S7,4329,DME,4029,AUH,2179,Y,0.0,330,4029.0,Domodedovo International Airport,Moscow,Russia,DME,UUDD,55.40879822,37.90629959,588.0,3,N,Europe/Moscow,Europe,2179.0,Abu Dhabi International Airport,Abu Dhabi,United Arab Emirates,AUH,OMAA,24.43300056,54.65110016,88.0,4,U,Asia/Dubai,Asia
6586,CY,1942,LCA,1197,AUH,2179,Y,0.0,320,1197.0,Larnaca International Airport,Larnaca,Cyprus,LCA,LCLK,34.87509918,33.62490082,8.0,2,E,Asia/Nicosia,Europe,2179.0,Abu Dhabi International Airport,Abu Dhabi,United Arab Emirates,AUH,OMAA,24.43300056,54.65110016,88.0,4,U,Asia/Dubai,Asia
6591,AA,24,ORD,3830,AUH,2179,Y,0.0,777,3830.0,Chicago O'Hare International Airport,Chicago,United States,ORD,KORD,41.9786,-87.9048,672.0,-6,A,America/Chicago,North America,2179.0,Abu Dhabi International Airport,Abu Dhabi,United Arab Emirates,AUH,OMAA,24.43300056,54.65110016,88.0,4,U,Asia/Dubai,Asia
6594,AZ,596,NBO,4059,AUH,2179,Y,0.0,320,4059.0,Jomo Kenyatta International Airport,Nairobi,Kenya,NBO,HKJK,-1.319239974,36.92779922,5330.0,3,N,Africa/Nairobi,Africa,2179.0,Abu Dhabi International Airport,Abu Dhabi,United Arab Emirates,AUH,OMAA,24.43300056,54.65110016,88.0,4,U,Asia/Dubai,Asia
6616,AA,24,DUS,345,AUH,2179,Y,0.0,330,345.0,Düsseldorf Airport,Duesseldorf,Germany,DUS,EDDL,51.289501,6.76678,147.0,1,E,Europe/Berlin,Europe,2179.0,Abu Dhabi International Airport,Abu Dhabi,United Arab Emirates,AUH,OMAA,24.43300056,54.65110016,88.0,4,U,Asia/Dubai,Asia
6619,AB,214,MUC,346,AUH,2179,Y,0.0,346 345 333,346.0,Munich Airport,Munich,Germany,MUC,EDDM,48.353802,11.7861,1487.0,1,E,Europe/Berlin,Europe,2179.0,Abu Dhabi International Airport,Abu Dhabi,United Arab Emirates,AUH,OMAA,24.43300056,54.65110016,88.0,4,U,Asia/Dubai,Asia
6623,EY,2222,TXL,351,AUH,2179,Y,0.0,332,351.0,Berlin-Tegel Airport,Berlin,Germany,TXL,EDDT,52.5597,13.2877,122.0,1,E,Europe/Berlin,Europe,2179.0,Abu Dhabi International Airport,Abu Dhabi,United Arab Emirates,AUH,OMAA,24.43300056,54.65110016,88.0,4,U,Asia/Dubai,Asia
6624,AF,137,AMS,580,AUH,2179,Y,0.0,332,580.0,Amsterdam Airport Schiphol,Amsterdam,Netherlands,AMS,EHAM,52.308601,4.76389,-11.0,1,E,Europe/Amsterdam,Europe,2179.0,Abu Dhabi International Airport,Abu Dhabi,United Arab Emirates,AUH,OMAA,24.43300056,54.65110016,88.0,4,U,Asia/Dubai,Asia
6626,DL,2009,AMS,580,AUH,2179,Y,0.0,332,580.0,Amsterdam Airport Schiphol,Amsterdam,Netherlands,AMS,EHAM,52.308601,4.76389,-11.0,1,E,Europe/Amsterdam,Europe,2179.0,Abu Dhabi International Airport,Abu Dhabi,United Arab Emirates,AUH,OMAA,24.43300056,54.65110016,88.0,4,U,Asia/Dubai,Asia
6633,SN,1531,BRU,302,AUH,2179,Y,0.0,332,302.0,Brussels Airport,Brussels,Belgium,BRU,EBBR,50.90140152,4.48443985,184.0,1,E,Europe/Brussels,Europe,2179.0,Abu Dhabi International Airport,Abu Dhabi,United Arab Emirates,AUH,OMAA,24.43300056,54.65110016,88.0,4,U,Asia/Dubai,Asia
6634,AT,4248,CMN,1074,AUH,2179,Y,0.0,333 346 332,1074.0,Mohammed V International Airport,Casablanca,Morocco,CMN,GMMN,33.36750031,-7.589970112,656.0,0,N,Africa/Casablanca,Africa,2179.0,Abu Dhabi International Airport,Abu Dhabi,United Arab Emirates,AUH,OMAA,24.43300056,54.65110016,88.0,4,U,Asia/Dubai,Asia
6636,TP,4869,CMN,1074,AUH,2179,Y,0.0,333,1074.0,Mohammed V International Airport,Casablanca,Morocco,CMN,GMMN,33.36750031,-7.589970112,656.0,0,N,Africa/Casablanca,Africa,2179.0,Abu Dhabi International Airport,Abu Dhabi,United Arab Emirates,AUH,OMAA,24.43300056,54.65110016,88.0,4,U,Asia/Dubai,Asia
6643,AZ,596,MEL,3339,AUH,2179,Y,0.0,77W,3339.0,Melbourne International Airport,Melbourne,Australia,MEL,YMML,-37.673302,144.843002,434.0,10,O,Australia/Hobart,Oceania,2179.0,Abu Dhabi International Airport,Abu Dhabi,United Arab Emirates,AUH,OMAA,24.43300056,54.65110016,88.0,4,U,Asia/Dubai,Asia
6645,VA,5360,MEL,3339,AUH,2179,Y,0.0,77W,3339.0,Melbourne International Airport,Melbourne,Australia,MEL,YMML,-37.673302,144.843002,434.0,10,O,Australia/Hobart,Oceania,2179.0,Abu Dhabi International Airport,Abu Dhabi,United Arab Emirates,AUH,OMAA,24.43300056,54.65110016,88.0,4,U,Asia/Dubai,Asia
6651,AZ,596,SYD,3361,AUH,2179,Y,0.0,77W 346,3361.0,Sydney Kingsford Smith International Airport,Sydney,Australia,SYD,YSSY,-33.94609833,151.177002,21.0,10,O,Australia/Sydney,Oceania,2179.0,Abu Dhabi International Airport,Abu Dhabi,United Arab Emirates,AUH,OMAA,24.43300056,54.65110016,88.0,4,U,Asia/Dubai,Asia
6673,AA,24,JFK,3797,AUH,2179,Y,0.0,777,3797.0,John F Kennedy International Airport,New York,United States,JFK,KJFK,40.63980103,-73.77890015,13.0,-5,A,America/New_York,North America,2179.0,Abu Dhabi International Airport,Abu Dhabi,United Arab Emirates,AUH,OMAA,24.43300056,54.65110016,88.0,4,U,Asia/Dubai,Asia
6688,AF,137,CDG,1382,AUH,2179,Y,0.0,346,1382.0,Charles de Gaulle International Airport,Paris,France,CDG,LFPG,49.012798,2.55,392.0,1,E,Europe/Paris,Europe,2179.0,Abu Dhabi International Airport,Abu Dhabi,United Arab Emirates,AUH,OMAA,24.43300056,54.65110016,88.0,4,U,Asia/Dubai,Asia
6690,EI,837,DUB,599,AUH,2179,Y,0.0,77W 332,599.0,Dublin Airport,Dublin,Ireland,DUB,EIDW,53.421299,-6.27007,242.0,0,E,Europe/Dublin,Europe,2179.0,Abu Dhabi International Airport,Abu Dhabi,United Arab Emirates,AUH,OMAA,24.43300056,54.65110016,88.0,4,U,Asia/Dubai,Asia
6693,EY,2222,FCO,1555,AUH,2179,Y,0.0,330,1555.0,Leonardo da VinciFiumicino Airport,Rome,Italy,FCO,LIRF,41.8002778,12.2388889,13.0,1,E,Europe/Rome,Europe,2179.0,Abu Dhabi International Airport,Abu Dhabi,United Arab Emirates,AUH,OMAA,24.43300056,54.65110016,88.0,4,U,Asia/Dubai,Asia
