,Airport ID,Name,City,Country,IATA,ICAO,Longitude,Latitude,Altitude,TimeZone,DST,Tz Database Time Zone,Type,Source,city,state_id,STATE,STUSAB,STATE_NAME,STATENS
0,3414,Point Lay LRRS Airport,Point Lay,United States,PIZ,PPIZ,69.73290253,-163.0050049,22.0,-9.0,A,America/Anchorage,airport,OurAirports,Point Lay,AK,2,AK,Alaska,1785533
1,3417,Bettles Airport,Bettles,United States,BTT,PABT,66.91390228,-151.529007,647.0,-9.0,A,America/Anchorage,airport,OurAirports,Bettles,AK,2,AK,Alaska,1785533
2,34,Fort Yukon Airport,Fort Yukon,United States,FYU,PFYU,66.57150269,-145.25,433.0,-9.0,A,America/Anchorage,airport,OurAirports,Fort Yukon,AK,2,AK,Alaska,1785533
3,3429,Iliamna Airport,Iliamna,United States,ILI,PAIL,59.75439835,-154.9109955,192.0,-9.0,A,America/Anchorage,airport,OurAirports,Iliamna,AK,2,AK,Alaska,1785533
4,3438,Merrill Field,Anchorage,United States,MRI,PAMR,61.21350098,-149.8439941,137.0,-9.0,A,America/Anchorage,airport,OurAirports,Anchorage,AK,2,AK,Alaska,1785533
5,3692,Elmendorf Air Force Base,Anchorage,United States,EDF,PAED,61.25099945,-149.8070068,212.0,-9.0,A,America/Anchorage,airport,OurAirports,Anchorage,AK,2,AK,Alaska,1785533
6,3774,Ted Stevens Anchorage International Airport,Anchorage,United States,ANC,PANC,61.17440033,-149.9960022,152.0,-9.0,A,America/Anchorage,airport,OurAirports,Anchorage,AK,2,AK,Alaska,1785533
7,51,Lake Hood Airport,Anchorage,United States,\N,PALH,61.186946,-149.965442,73.0,-9.0,A,America/Anchorage,airport,OurAirports,Anchorage,AK,2,AK,Alaska,1785533
8,,Anchorage Rail Depot,Anchorage,United States,\N,\N,61.1318,-149.5326,102.0,-9.0,A,America/Anchorage,station,User,Anchorage,AK,2,AK,Alaska,1785533
9,34,Dillingham Airport,Dillingham,United States,DLG,PADL,59.04470062,-158.5050049,81.0,-9.0,A,America/Anchorage,airport,OurAirports,Dillingham,AK,2,AK,Alaska,1785533
10,3583,Dillingham Airfield,Dillingham,United States,HDH,PHDH,21.5795002,-158.1970062,14.0,-10.0,A,Pacific/Honolulu,airport,OurAirports,Dillingham,AK,2,AK,Alaska,1785533
11,3475,Allen Army Airfield,Delta Junction,United States,BIG,PABI,63.99449921,-145.7220001,1291.0,-9.0,A,America/Anchorage,airport,OurAirports,Delta Junction,AK,2,AK,Alaska,1785533
12,97,Delta Junction Airport,Delta Junction,United States,DJN,\N,64.050556,-145.717222,1150.0,-9.0,A,America/Anchorage,airport,User,Delta Junction,AK,2,AK,Alaska,1785533
13,3492,Juneau International Airport,Juneau,United States,JNU,PAJN,58.35499954,-134.576004,21.0,-9.0,A,America/Anchorage,airport,OurAirports,Juneau,AK,2,AK,Alaska,1785533
14,3531,Kodiak Airport,Kodiak,United States,ADQ,PADQ,57.75,-152.4940033,78.0,-9.0,A,America/Anchorage,airport,OurAirports,Kodiak,AK,2,AK,Alaska,1785533
15,35,George Bush Intercontinental Houston Airport,Houston,United States,IAH,KIAH,29.9843998,-95.34140015,97.0,-6.0,A,America/Chicago,airport,OurAirports,Houston,AK,2,AK,Alaska,1785533
16,3566,William P Hobby Airport,Houston,United States,HOU,KHOU,29.64539909,-95.27890015,46.0,-6.0,A,America/Chicago,airport,OurAirports,Houston,AK,2,AK,Alaska,1785533
17,3572,Ellington Airport,Houston,United States,EFD,KEFD,29.6072998,-95.15879822,32.0,-6.0,A,America/Chicago,airport,OurAirports,Houston,AK,2,AK,Alaska,1785533
18,65,David Wayne Hooks Memorial Airport,Houston,United States,DWH,KDWH,30.0618,-95.55280304,152.0,-6.0,A,America/Chicago,airport,OurAirports,Houston,AK,2,AK,Alaska,1785533
19,4226,West Houston Airport,Houston,United States,IWS,KIWS,29.81819916,-95.67259979,111.0,-6.0,A,America/Chicago,airport,OurAirports,Houston,AK,2,AK,Alaska,1785533
20,9225,Andrau Airpark,Houston,United States,AAP,KAAP,29.72249985,-95.58830261,79.0,-6.0,A,America/Chicago,airport,OurAirports,Houston,AK,2,AK,Alaska,1785533
21,3568,Northway Airport,Northway,United States,ORT,PAOR,62.9612999,-141.9290009,1715.0,-9.0,A,America/Anchorage,airport,OurAirports,Northway,AK,2,AK,Alaska,1785533
22,3569,"Warren ""Bud"" Woods Palmer Municipal Airport",Palmer,United States,PAQ,PAAQ,61.594898,-149.08901,242.0,-9.0,A,America/Anchorage,airport,OurAirports,Palmer,AK,2,AK,Alaska,1785533
23,3599,Bethel Airport,Bethel,United States,BET,PABE,60.77980042,-161.8379974,126.0,-9.0,A,America/Anchorage,airport,OurAirports,Bethel,AK,2,AK,Alaska,1785533
24,36,Merle K (Mudhole) Smith Airport,Cordova,United States,CDV,PACV,60.4917984,-145.4779968,54.0,-9.0,A,America/Anchorage,airport,OurAirports,Cordova,AK,2,AK,Alaska,1785533
25,3615,Nome Airport,Nome,United States,OME,PAOM,64.5121994,-165.4450073,37.0,-9.0,A,America/Anchorage,airport,OurAirports,Nome,AK,2,AK,Alaska,1785533
26,3628,Kenai Municipal Airport,Kenai,United States,ENA,PAEN,60.57310104,-151.2449951,99.0,-9.0,A,America/Anchorage,airport,OurAirports,Kenai,AK,2,AK,Alaska,1785533
27,3649,Eielson Air Force Base,Fairbanks,United States,EIL,PAEI,64.66570282,-147.102005,547.0,-9.0,A,America/Anchorage,airport,OurAirports,Fairbanks,AK,2,AK,Alaska,1785533
28,3832,Fairbanks International Airport,Fairbanks,United States,FAI,PAFA,64.81510162,-147.8560028,439.0,-9.0,A,America/Anchorage,airport,OurAirports,Fairbanks,AK,2,AK,Alaska,1785533
29,27,Fairbanks Train Depot,Fairbanks,United States,\N,\N,64.5109,-147.4445,446.0,-9.0,A,America/Anchorage,station,User,Fairbanks,AK,2,AK,Alaska,1785533
30,3664,Homer Airport,Homer,United States,HOM,PAHO,59.64559937,-151.477005,84.0,-9.0,A,America/Anchorage,airport,OurAirports,Homer,AK,2,AK,Alaska,1785533
31,3693,Ralph Wien Memorial Airport,Kotzebue,United States,OTZ,PAOT,66.88469696,-162.598999,14.0,-9.0,A,America/Anchorage,airport,OurAirports,Kotzebue,AK,2,AK,Alaska,1785533
32,3764,Edward G. Pitka Sr Airport,Galena,United States,GAL,PAGA,64.73619843,-156.9369965,153.0,-9.0,A,America/Anchorage,airport,OurAirports,Galena,AK,2,AK,Alaska,1785533
33,3794,King Salmon Airport,King Salmon,United States,AKN,PAKN,58.67679977,-156.6490021,73.0,-9.0,A,America/Anchorage,airport,OurAirports,King Salmon,AK,2,AK,Alaska,1785533
34,38,Ketchikan International Airport,Ketchikan,United States,KTN,PAKT,55.35559845,-131.7140045,89.0,-9.0,A,America/Anchorage,airport,OurAirports,Ketchikan,AK,2,AK,Alaska,1785533
35,7249,Ketchikan harbor Seaplane Base,Ketchikan,United States,WFB,\N,55.344444,-131.663333,0.0,-9.0,A,America/Anchorage,airport,User,Ketchikan,AK,2,AK,Alaska,1785533
36,3837,Gulkana Airport,Gulkana,United States,GKN,PAGK,62.1548996,-145.4570007,1586.0,-9.0,A,America/Anchorage,airport,OurAirports,Gulkana,AK,2,AK,Alaska,1785533
37,3854,Cold Bay Airport,Cold Bay,United States,CDB,PACD,55.20610046,-162.7250061,96.0,-9.0,A,America/Anchorage,airport,OurAirports,Cold Bay,AK,2,AK,Alaska,1785533
38,74,Port Moller Airport,Cold Bay,United States,PML,PAAL,56.00600052,-160.5610046,20.0,-9.0,A,America/Anchorage,airport,OurAirports,Cold Bay,AK,2,AK,Alaska,1785533
39,3856,Sitka Rocky Gutierrez Airport,Sitka,United States,SIT,PASI,57.04710007,-135.3619995,21.0,-9.0,A,America/Anchorage,airport,OurAirports,Sitka,AK,2,AK,Alaska,1785533
40,7139,Chatham Seaplane Base,Sitka,United States,CYM,\N,57.515,-134.946111,0.0,-9.0,A,America/Anchorage,airport,User,Sitka,AK,2,AK,Alaska,1785533
41,38,Unalaska Airport,Unalaska,United States,DUT,PADU,53.90010071,-166.5440063,22.0,-9.0,A,America/Anchorage,airport,OurAirports,Unalaska,AK,2,AK,Alaska,1785533
42,3865,Valdez Pioneer Field,Valdez,United States,VDZ,PAVD,61.13389969,-146.2480011,121.0,-9.0,A,America/Anchorage,airport,OurAirports,Valdez,AK,2,AK,Alaska,1785533
43,9514,Ferry Terminal,Valdez,United States,\N,VLDZ,61.123976,-146.365309,0.0,-9.0,A,America/Anchorage,port,User,Valdez,AK,2,AK,Alaska,1785533
44,04,Talkeetna Airport,Talkeetna,United States,TKA,PATK,62.32049942,-150.0939941,358.0,-9.0,A,America/Anchorage,airport,OurAirports,Talkeetna,AK,2,AK,Alaska,1785533
45,29,Talkeetna Train Depot,Talkeetna,United States,\N,\N,62.18934,-150.06177,348.0,-9.0,A,America/Anchorage,station,User,Talkeetna,AK,2,AK,Alaska,1785533
46,18,Evansville Regional Airport,Evansville,United States,EVV,KEVV,38.03699875,-87.53240204,418.0,-6.0,A,America/Chicago,airport,OurAirports,Evansville,AK,2,AK,Alaska,1785533
47,22,Bert Mooney Airport,Butte,United States,BTM,KBTM,45.95479965,-112.4970016,5550.0,-7.0,A,America/Denver,airport,OurAirports,Butte,AK,2,AK,Alaska,1785533
48,4147,Petersburg James A Johnson Airport,Petersburg,United States,PSG,PAPG,56.80170059,-132.9450073,111.0,-9.0,A,America/Anchorage,airport,OurAirports,Petersburg,AK,2,AK,Alaska,1785533
49,91,Dinwiddie County Airport,Petersburg,United States,PTB,KPTB,37.18379974,-77.50740051,193.0,-5.0,A,America/New_York,airport,OurAirports,Petersburg,AK,2,AK,Alaska,1785533
50,59,Gustavus Airport,Gustavus,United States,GST,PAGS,58.4253006,-135.7070007,35.0,-9.0,A,America/Anchorage,airport,OurAirports,Gustavus,AK,2,AK,Alaska,1785533
51,5961,Skagway Airport,Skagway,United States,SGY,PAGY,59.46009827,-135.3159943,44.0,-9.0,A,America/Anchorage,airport,OurAirports,Skagway,AK,2,AK,Alaska,1785533
52,5962,Holy Cross Airport,Holy Cross,United States,HCR,PAHC,62.18830109,-159.7749939,70.0,-9.0,A,America/Anchorage,airport,OurAirports,Holy Cross,AK,2,AK,Alaska,1785533
53,5963,Haines Airport,Haines,United States,HNS,PAHN,59.24380112,-135.5240021,15.0,-9.0,A,America/Anchorage,airport,OurAirports,Haines,AK,2,AK,Alaska,1785533
54,5966,Mountain Village Airport,Mountain Village,United States,MOU,PAMO,62.09540176,-163.6820068,337.0,-9.0,A,America/Anchorage,airport,OurAirports,Mountain Village,AK,2,AK,Alaska,1785533
55,5967,Aniak Airport,Aniak,United States,ANI,PANI,61.58160019,-159.5429993,88.0,-9.0,A,America/Anchorage,airport,OurAirports,Aniak,AK,2,AK,Alaska,1785533
56,5968,Chevak Airport,Chevak,United States,VAK,PAVA,61.5409,-165.6005,75.0,-9.0,A,America/Anchorage,airport,OurAirports,Chevak,AK,2,AK,Alaska,1785533
57,5969,Wrangell Airport,Wrangell,United States,WRG,PAWG,56.48429871,-132.3699951,49.0,-9.0,A,America/Anchorage,airport,OurAirports,Wrangell,AK,2,AK,Alaska,1785533
58,6126,Aleknagik / New Airport,Aleknagik,United States,WKK,5A8,59.2826004,-158.6179962,66.0,-9.0,A,America/Anchorage,airport,OurAirports,Aleknagik,AK,2,AK,Alaska,1785533
59,6134,Akutan Seaplane Base,Akutan,United States,KQA,KQA,54.13377044,-165.7788956,0.0,-9.0,A,America/Anchorage,airport,OurAirports,Akutan,AK,2,AK,Alaska,1785533
60,6712,Anaktuvuk Pass Airport,Anaktuvuk Pass,United States,AKP,PAKP,68.13359833,-151.7429962,2102.0,-9.0,A,America/Anchorage,airport,OurAirports,Anaktuvuk Pass,AK,2,AK,Alaska,1785533
61,6713,Anvik Airport,Anvik,United States,ANV,PANV,62.646702,-160.190994,291.0,-9.0,A,America/Anchorage,airport,OurAirports,Anvik,AK,2,AK,Alaska,1785533
62,6714,Atqasuk Edward Burnell Sr Memorial Airport,Atqasuk,United States,ATK,PATQ,70.46730042,-157.4360046,96.0,-9.0,A,America/Anchorage,airport,OurAirports,Atqasuk,AK,2,AK,Alaska,1785533
63,6715,Gambell Airport,Gambell,United States,GAM,PAGM,63.76679993,-171.7330017,27.0,-9.0,A,America/Anchorage,airport,OurAirports,Gambell,AK,2,AK,Alaska,1785533
64,6716,Hooper Bay Airport,Hooper Bay,United States,HPB,PAHP,61.52389908,-166.1470032,13.0,-9.0,A,America/Anchorage,airport,OurAirports,Hooper Bay,AK,2,AK,Alaska,1785533
65,6717,Kaltag Airport,Kaltag,United States,KAL,PAKV,64.31909943,-158.7409973,181.0,-9.0,A,America/Anchorage,airport,OurAirports,Kaltag,AK,2,AK,Alaska,1785533
66,6719,Kivalina Airport,Kivalina,United States,KVL,PAVL,67.73619843,-164.5630035,13.0,-9.0,A,America/Anchorage,airport,OurAirports,Kivalina,AK,2,AK,Alaska,1785533
67,67,Mekoryuk Airport,Mekoryuk,United States,MYU,PAMY,60.37139893,-166.2709961,48.0,-9.0,A,America/Anchorage,airport,OurAirports,Mekoryuk,AK,2,AK,Alaska,1785533
68,6721,Point Hope Airport,Point Hope,United States,PHO,PPHO,68.3488,-166.799,12.0,-9.0,A,America/Anchorage,airport,User,Point Hope,AK,2,AK,Alaska,1785533
69,6722,Ruby Airport,Ruby,United States,RBY,PARY,64.72720337,-155.4700012,658.0,-9.0,A,America/Anchorage,airport,OurAirports,Ruby,AK,2,AK,Alaska,1785533
70,6723,Shishmaref Airport,Shishmaref,United States,SHH,PASH,66.249604,-166.089112,12.0,-9.0,A,America/Anchorage,airport,OurAirports,Shishmaref,AK,2,AK,Alaska,1785533
71,6724,Savoonga Airport,Savoonga,United States,SVA,PASA,63.68640137,-170.4929962,53.0,-9.0,A,America/Anchorage,airport,OurAirports,Savoonga,AK,2,AK,Alaska,1785533
72,6725,Noatak Airport,Noatak,United States,WTK,PAWN,67.56610107,-162.9750061,88.0,-9.0,A,America/Anchorage,airport,OurAirports,Noatak,AK,2,AK,Alaska,1785533
73,6729,Arctic Village Airport,Arctic Village,United States,ARC,PARC,68.1147,-145.578995,2092.0,-9.0,A,America/Anchorage,airport,OurAirports,Arctic Village,AK,2,AK,Alaska,1785533
74,6736,Port Clarence Coast Guard Station,Port Clarence,United States,KPC,PAPC,65.25370026,-166.8589935,10.0,-9.0,A,America/Anchorage,airport,OurAirports,Port Clarence,AK,2,AK,Alaska,1785533
75,6742,Sand Point Airport,Sand Point,United States,SDP,PASD,55.31499863,-160.522995,21.0,-9.0,A,America/Anchorage,airport,OurAirports,Sand Point,AK,2,AK,Alaska,1785533
76,6755,Deering Airport,Deering,United States,DRG,PADE,66.06960297,-162.7660065,21.0,-9.0,A,America/Anchorage,airport,OurAirports,Deering,AK,2,AK,Alaska,1785533
77,6763,Igiugig Airport,Igiugig,United States,IGG,PAIG,59.32400131,-155.9019928,90.0,-9.0,A,America/Anchorage,airport,OurAirports,Igiugig,AK,2,AK,Alaska,1785533
78,6764,New Stuyahok Airport,New Stuyahok,United States,KNW,PANW,59.44990158,-157.3280029,364.0,-9.0,A,America/Anchorage,airport,OurAirports,New Stuyahok,AK,2,AK,Alaska,1785533
79,6765,King Cove Airport,King Cove,United States,KVC,PAVC,55.11629868,-162.2660065,155.0,-9.0,A,America/Anchorage,airport,OurAirports,King Cove,AK,2,AK,Alaska,1785533
80,6766,Port Heiden Airport,Port Heiden,United States,PTH,PAPH,56.95909882,-158.6329956,95.0,-9.0,A,America/Anchorage,airport,OurAirports,Port Heiden,AK,2,AK,Alaska,1785533
81,63,Yakutat Airport,Yakutat,United States,YAK,PAYA,59.50329971,-139.6600037,33.0,-9.0,A,America/Anchorage,airport,OurAirports,Yakutat,AK,2,AK,Alaska,1785533
82,6839,Allakaket Airport,Allakaket,United States,AET,PFAL,66.55180359,-152.621994,441.0,-9.0,A,America/Anchorage,airport,OurAirports,Allakaket,AK,2,AK,Alaska,1785533
83,6845,Seward Airport,Seward,United States,SWD,PAWD,60.12689972,-149.4190063,22.0,-9.0,U,America/Anchorage,airport,OurAirports,Seward,AK,2,AK,Alaska,1785533
84,6882,Tyonek Airport,Tyonek,United States,TYE,\N,61.076667,-151.138056,110.0,-9.0,A,America/Anchorage,airport,User,Tyonek,AK,2,AK,Alaska,1785533
85,69,Chefornak Airport,Chefornak,United States,CYF,PACK,60.14920044,-164.2859955,40.0,-9.0,A,America/Anchorage,airport,OurAirports,Chefornak,AK,2,AK,Alaska,1785533
86,38,Eagle County Airport,Eagle,United States,EGA,\N,39.6427611,-106.9159347,6548.0,-7.0,U,America/Denver,airport,User,Eagle,AK,2,AK,Alaska,1785533
87,76,Eagle Airport,Eagle,United States,EAA,PAEG,64.77639771,-141.151001,908.0,-9.0,A,America/Anchorage,airport,OurAirports,Eagle,AK,2,AK,Alaska,1785533
88,87,Emmonak Airport,Emmonak,United States,EMK,PAEM,62.78609848,-164.4909973,13.0,-9.0,A,America/Anchorage,airport,OurAirports,Emmonak,AK,2,AK,Alaska,1785533
89,88,Unalakleet Airport,Unalakleet,United States,UNK,PAUN,63.88840103,-160.798996,27.0,-9.0,A,America/Anchorage,airport,OurAirports,Unalakleet,AK,2,AK,Alaska,1785533
90,,Shageluk Airport,Shageluk,United States,SHX,PAHX,62.69229889,-159.5690002,79.0,-9.0,A,America/Anchorage,airport,OurAirports,Shageluk,AK,2,AK,Alaska,1785533
91,91,Chuathbaluk Airport,Chuathbaluk,United States,CHU,PACH,61.579102,-159.216003,244.0,-9.0,A,America/Anchorage,airport,OurAirports,Chuathbaluk,AK,2,AK,Alaska,1785533
92,92,Nuiqsut Airport,Nuiqsut,United States,NUI,PAQT,70.20999908,-151.0059967,38.0,-9.0,A,America/Anchorage,airport,OurAirports,Nuiqsut,AK,2,AK,Alaska,1785533
93,93,Eek Airport,Eek,United States,EEK,PAEE,60.21367264,-162.0438843,12.0,-9.0,A,America/Anchorage,airport,OurAirports,Eek,AK,2,AK,Alaska,1785533
94,94,Kasigluk Airport,Kasigluk,United States,KUK,PFKA,60.87440109,-162.5240021,48.0,-9.0,A,America/Anchorage,airport,OurAirports,Kasigluk,AK,2,AK,Alaska,1785533
95,95,Kwethluk Airport,Kwethluk,United States,KWT,PFKW,60.79029846,-161.4440002,25.0,-9.0,A,America/Anchorage,airport,OurAirports,Kwethluk,AK,2,AK,Alaska,1785533
96,96,Kwigillingok Airport,Kwigillingok,United States,KWK,PAGG,59.876499,-163.169005,18.0,-9.0,A,America/Anchorage,airport,OurAirports,Kwigillingok,AK,2,AK,Alaska,1785533
97,97,Marshall Don Hunter Sr Airport,Marshall,United States,MLL,PADM,61.86429977,-162.026001,103.0,-9.0,A,America/Anchorage,airport,OurAirports,Marshall,AK,2,AK,Alaska,1785533
98,8559,Brooks Field,Marshall,United States,\N,KRMY,42.25120163,-84.95549774,941.0,-5.0,A,America/New_York,airport,OurAirports,Marshall,AK,2,AK,Alaska,1785533
99,98,Russian Mission Airport,Russian Mission,United States,RSH,PARS,61.77888489,-161.319458,51.0,-9.0,A,America/Anchorage,airport,OurAirports,Russian Mission,AK,2,AK,Alaska,1785533
100,99,Tuntutuliak Airport,Tuntutuliak,United States,WTL,\N,60.335278,-162.666944,16.0,-9.0,A,America/Anchorage,airport,User,Tuntutuliak,AK,2,AK,Alaska,1785533
101,70,Ekwok Airport,Ekwok,United States,KEK,\N,59.356944,-157.471111,135.0,-9.0,A,America/Anchorage,airport,User,Ekwok,AK,2,AK,Alaska,1785533
102,71,Koliganek Airport,Koliganek,United States,KGK,PAJZ,59.72660065,-157.2590027,269.0,-9.0,A,America/Anchorage,airport,OurAirports,Koliganek,AK,2,AK,Alaska,1785533
103,72,Levelock Airport,Levelock,United States,KLL,\N,59.128056,-156.858611,39.0,-9.0,A,America/Anchorage,airport,User,Levelock,AK,2,AK,Alaska,1785533
104,73,Manokotak Airport,Manokotak,United States,KMO,PAMB,58.99020004,-159.0500031,100.0,-9.0,A,America/Anchorage,airport,OurAirports,Manokotak,AK,2,AK,Alaska,1785533
105,74,Twin Hills Airport,Twin Hills,United States,TWA,\N,59.074444,-160.275,82.0,-9.0,A,America/Anchorage,airport,User,Twin Hills,AK,2,AK,Alaska,1785533
106,75,Chalkyitsik Airport,Chalkyitsik,United States,CIK,PACI,66.64499664,-143.7400055,544.0,-9.0,A,America/Anchorage,airport,OurAirports,Chalkyitsik,AK,2,AK,Alaska,1785533
107,77,Hughes Airport,Hughes,United States,HUS,PAHU,66.04109955,-154.2630005,299.0,-9.0,A,America/Anchorage,airport,OurAirports,Hughes,AK,2,AK,Alaska,1785533
108,78,Huslia Airport,Huslia,United States,HSL,PAHL,65.69789886,-156.3509979,220.0,-9.0,A,America/Anchorage,airport,OurAirports,Huslia,AK,2,AK,Alaska,1785533
109,71,Minto Airport,Minto,United States,MNT,\N,65.143611,-149.37,460.0,-9.0,A,America/Anchorage,airport,User,Minto,AK,2,AK,Alaska,1785533
110,7111,Nulato Airport,Nulato,United States,NUL,PANU,64.729301,-158.074005,399.0,-9.0,A,America/Anchorage,airport,OurAirports,Nulato,AK,2,AK,Alaska,1785533
111,7112,Rampart Airport,Rampart,United States,RMP,\N,65.507778,-150.140833,302.0,-9.0,A,America/Anchorage,airport,User,Rampart,AK,2,AK,Alaska,1785533
112,7113,Tanana Airport,Tanana,United States,TAL,\N,65.179556,-152.075833,207.0,-9.0,A,America/Anchorage,airport,User,Tanana,AK,2,AK,Alaska,1785533
113,7114,Venetie Airport,Venetie,United States,VEE,PAVE,67.00869751,-146.3659973,574.0,-9.0,A,America/Anchorage,airport,OurAirports,Venetie,AK,2,AK,Alaska,1785533
114,7115,Beaver Airport,Beaver,United States,WBQ,PAWB,66.36219788,-147.4069977,359.0,-9.0,A,America/Anchorage,airport,OurAirports,Beaver,AK,2,AK,Alaska,1785533
115,7116,Central Airport,Central,United States,CEM,PACE,65.57379913,-144.7830048,937.0,-9.0,A,America/Anchorage,airport,OurAirports,Central,AK,2,AK,Alaska,1785533
116,7117,Shungnak Airport,Shungnak,United States,SHG,PAGH,66.88809967,-157.1620026,197.0,-9.0,A,America/Anchorage,airport,OurAirports,Shungnak,AK,2,AK,Alaska,1785533
117,7119,Coldfoot Airport,Coldfoot,United States,CXF,\N,67.251389,-150.176111,1014.0,-9.0,A,America/Anchorage,airport,User,Coldfoot,AK,2,AK,Alaska,1785533
118,7135,Angoon Seaplane Base,Angoon,United States,AGN,PAGN,57.503601,-134.585007,0.0,-9.0,A,America/Anchorage,airport,OurAirports,Angoon,AK,2,AK,Alaska,1785533
119,7136,Elfin Cove Seaplane Base,Elfin Cove,United States,ELV,PAEL,58.19520187,-136.3470001,0.0,-9.0,A,America/Anchorage,airport,OurAirports,Elfin Cove,AK,2,AK,Alaska,1785533
120,7137,Tenakee Seaplane Base,Tenakee Springs,United States,TKE,\N,57.779722,-135.218333,0.0,-9.0,A,America/Anchorage,airport,User,Tenakee Springs,AK,2,AK,Alaska,1785533
121,7138,Pelican Seaplane Base,Pelican,United States,PEC,\N,57.955278,-136.236389,0.0,-9.0,A,America/Anchorage,airport,User,Pelican,AK,2,AK,Alaska,1785533
122,7141,Excursion Inlet Seaplane Base,Excursion Inlet,United States,EXI,\N,58.420556,-135.449167,0.0,-9.0,A,America/Anchorage,airport,User,Excursion Inlet,AK,2,AK,Alaska,1785533
123,7142,Hoonah Airport,Hoonah,United States,HNH,PAOH,58.0961,-135.410111,19.0,-9.0,A,America/Anchorage,airport,OurAirports,Hoonah,AK,2,AK,Alaska,1785533
124,7143,Kake Airport,Kake,United States,\N,PAFE,56.96139908,-133.9100037,172.0,-9.0,A,America/Anchorage,airport,OurAirports,Kake,AK,2,AK,Alaska,1785533
125,7243,Kake Seaplane Base,Kake,United States,KAE,\N,56.973056,-133.945556,0.0,-9.0,A,America/Anchorage,airport,User,Kake,AK,2,AK,Alaska,1785533
126,7144,Craig Seaplane Base,Craig,United States,CGA,\N,55.478889,-133.147778,0.0,-9.0,A,America/Anchorage,airport,User,Craig,AK,2,AK,Alaska,1785533
127,7145,Hollis Seaplane Base,Hollis,United States,HYL,\N,55.481667,-132.646111,0.0,-9.0,A,America/Anchorage,airport,User,Hollis,AK,2,AK,Alaska,1785533
128,7147,Thorne Bay Seaplane Base,Thorne Bay,United States,KTB,\N,55.688056,-132.536667,0.0,-9.0,A,America/Anchorage,airport,User,Thorne Bay,AK,2,AK,Alaska,1785533
129,7148,Hydaburg Seaplane Base,Hydaburg,United States,HYG,PAHY,55.20629883,-132.8280029,0.0,-9.0,A,America/Anchorage,airport,OurAirports,Hydaburg,AK,2,AK,Alaska,1785533
130,7149,Hyder Seaplane Base,Hyder,United States,WHD,\N,55.903333,-130.006667,0.0,-8.0,A,America/Vancouver,airport,User,Hyder,AK,2,AK,Alaska,1785533
131,7153,Chignik Lake Airport,Chignik Lake,United States,KCQ,\N,56.255,-158.775278,50.0,-9.0,A,America/Anchorage,airport,User,Chignik Lake,AK,2,AK,Alaska,1785533
132,7154,Egegik Airport,Egegik,United States,EGX,PAII,58.1855011,-157.375,92.0,-9.0,A,America/Anchorage,airport,OurAirports,Egegik,AK,2,AK,Alaska,1785533
133,7155,Chignik Lagoon Airport,Chignik Lagoon,United States,KCL,\N,56.311111,-158.534167,25.0,-9.0,A,America/Anchorage,airport,User,Chignik Lagoon,AK,2,AK,Alaska,1785533
134,7156,Chignik Bay Seaplane Base,Chignik,United States,KBW,\N,56.295556,-158.401398,0.0,-9.0,A,America/Anchorage,airport,User,Chignik,AK,2,AK,Alaska,1785533
135,9745,Chignik Fisheries Airport,Chignik,United States,KCG,\N,56.317778,-158.590833,25.0,-9.0,A,America/Anchorage,airport,User,Chignik,AK,2,AK,Alaska,1785533
136,7157,Perryville Airport,Perryville,United States,KPV,PAPE,55.905998,-159.162993,29.0,-9.0,A,America/Anchorage,airport,OurAirports,Perryville,AK,2,AK,Alaska,1785533
137,7158,Pilot Point Airport,Pilot Point,United States,PIP,PAPN,57.58039856,-157.5720062,57.0,-9.0,A,America/Anchorage,airport,OurAirports,Pilot Point,AK,2,AK,Alaska,1785533
138,7159,South Naknek Nr 2 Airport,South Naknek,United States,WSN,PFWS,58.70339966,-157.0079956,162.0,-9.0,A,America/Anchorage,airport,OurAirports,South Naknek,AK,2,AK,Alaska,1785533
139,71,Akhiok Airport,Akhiok,United States,AKK,PAKH,56.93870163,-154.1829987,44.0,-9.0,A,America/Anchorage,airport,OurAirports,Akhiok,AK,2,AK,Alaska,1785533
140,7161,Karluk Airport,Karluk,United States,KYK,PAKY,57.56710052,-154.4499969,137.0,-9.0,A,America/Anchorage,airport,OurAirports,Karluk,AK,2,AK,Alaska,1785533
141,7162,Larsen Bay Airport,Larsen Bay,United States,KLN,PALB,57.53509903,-153.9779968,87.0,-9.0,A,America/Anchorage,airport,OurAirports,Larsen Bay,AK,2,AK,Alaska,1785533
142,7163,Old Harbor Airport,Old Harbor,United States,OLH,\N,57.218056,-153.269722,55.0,-9.0,A,America/Anchorage,airport,User,Old Harbor,AK,2,AK,Alaska,1785533
143,7164,Ouzinkie Airport,Ouzinkie,United States,KOZ,\N,57.922876,-152.500511,55.0,-9.0,A,America/Anchorage,airport,User,Ouzinkie,AK,2,AK,Alaska,1785533
144,7165,Port Lions Airport,Port Lions,United States,ORI,\N,57.885278,-152.846111,52.0,-9.0,A,America/Anchorage,airport,User,Port Lions,AK,2,AK,Alaska,1785533
145,7177,Ambler Airport,Ambler,United States,ABL,PAFM,67.1063,-157.856989,334.0,-9.0,A,America/Anchorage,airport,OurAirports,Ambler,AK,2,AK,Alaska,1785533
146,7178,Buckland Airport,Buckland,United States,BKC,PABL,65.9815979,-161.1490021,31.0,-9.0,A,America/Anchorage,airport,OurAirports,Buckland,AK,2,AK,Alaska,1785533
147,7179,Bob Baker Memorial Airport,Kiana,United States,IAN,PAIK,66.97599792,-160.4369965,166.0,-9.0,A,America/Anchorage,airport,OurAirports,Kiana,AK,2,AK,Alaska,1785533
148,71,Kobuk Airport,Kobuk,United States,OBU,PAOB,66.91230011,-156.8970032,137.0,-9.0,A,America/Anchorage,airport,OurAirports,Kobuk,AK,2,AK,Alaska,1785533
149,7181,Robert (Bob) Curtis Memorial Airport,Noorvik,United States,ORV,PFNO,66.81790161,-161.0189972,55.0,-9.0,A,America/Anchorage,airport,OurAirports,Noorvik,AK,2,AK,Alaska,1785533
150,7182,Selawik Airport,Selawik,United States,WLK,PASK,66.60009766,-159.9859924,17.0,-9.0,A,America/Anchorage,airport,OurAirports,Selawik,AK,2,AK,Alaska,1785533
151,7183,Brevig Mission Airport,Brevig Mission,United States,KTS,PFKT,65.33129883,-166.4660034,38.0,-9.0,A,America/Anchorage,airport,OurAirports,Brevig Mission,AK,2,AK,Alaska,1785533
152,7184,Elim Airport,Elim,United States,ELI,PFEL,64.61470032,-162.2720032,162.0,-9.0,A,America/Anchorage,airport,OurAirports,Elim,AK,2,AK,Alaska,1785533
153,7185,Golovin Airport,Golovin,United States,GLV,PAGL,64.55049896,-163.0070038,59.0,-9.0,A,America/Anchorage,airport,OurAirports,Golovin,AK,2,AK,Alaska,1785533
154,7186,Teller Airport,Teller,United States,TLA,PATE,65.24040222,-166.3390045,294.0,-9.0,A,America/Anchorage,airport,OurAirports,Teller,AK,2,AK,Alaska,1785533
155,7187,Wales Airport,Wales,United States,WAA,PAIW,65.622593,-168.095,22.0,-9.0,A,America/Anchorage,airport,OurAirports,Wales,AK,2,AK,Alaska,1785533
156,7188,White Mountain Airport,White Mountain,United States,WMO,PAWM,64.68920136,-163.4129944,267.0,-9.0,A,America/Anchorage,airport,OurAirports,White Mountain,AK,2,AK,Alaska,1785533
157,71,Koyuk Alfred Adams Airport,Koyuk,United States,KKA,PAKK,64.9394989,-161.154007,154.0,-9.0,A,America/Anchorage,airport,OurAirports,Koyuk,AK,2,AK,Alaska,1785533
158,7191,St Michael Airport,St. Michael,United States,SMK,PAMK,63.49010086,-162.1100006,98.0,-9.0,A,America/Anchorage,airport,OurAirports,St. Michael,AK,2,AK,Alaska,1785533
159,7192,Shaktoolik Airport,Shaktoolik,United States,SKK,PFSH,64.37110138,-161.223999,24.0,-9.0,A,America/Anchorage,airport,OurAirports,Shaktoolik,AK,2,AK,Alaska,1785533
160,7193,Stebbins Airport,Stebbins,United States,WBB,\N,63.515833,-162.278056,14.0,-9.0,A,America/Anchorage,airport,User,Stebbins,AK,2,AK,Alaska,1785533
161,7195,Atka Airport,Atka,United States,AKB,PAAK,52.22029877,-174.2059937,57.0,-10.0,A,America/Adak,airport,OurAirports,Atka,AK,2,AK,Alaska,1785533
162,7196,Nikolski Air Station,Nikolski,United States,IKO,PAKO,52.9416008,-168.848999,77.0,-9.0,A,America/Anchorage,airport,OurAirports,Nikolski,AK,2,AK,Alaska,1785533
163,7199,Alakanuk Airport,Alakanuk,United States,AUK,PAUK,62.68004227,-164.6599274,10.0,-9.0,A,America/Anchorage,airport,OurAirports,Alakanuk,AK,2,AK,Alaska,1785533
164,70,Sheldon Point Airport,Nunam Iqua,United States,SXP,\N,62.520556,-164.847778,12.0,-9.0,A,America/Anchorage,airport,User,Nunam Iqua,AK,2,AK,Alaska,1785533
165,71,Kipnuk Airport,Kipnuk,United States,KPN,PAKI,59.93299866,-164.0310059,11.0,-9.0,A,America/Anchorage,airport,OurAirports,Kipnuk,AK,2,AK,Alaska,1785533
166,72,False Pass Airport,False Pass,United States,KFP,PAKF,54.84740067,-163.4100037,20.0,-9.0,A,America/Anchorage,airport,OurAirports,False Pass,AK,2,AK,Alaska,1785533
167,73,Nelson Lagoon Airport,Nelson Lagoon,United States,NLG,PAOU,56.00749969,-161.1600037,14.0,-9.0,A,America/Anchorage,airport,OurAirports,Nelson Lagoon,AK,2,AK,Alaska,1785533
168,75,Klawock Airport,Klawock,United States,KLW,PAKW,55.57920074,-133.076004,80.0,-9.0,A,America/Anchorage,airport,OurAirports,Klawock,AK,2,AK,Alaska,1785533
169,7244,Klawock Seaplane Base,Klawock,United States,\N,PAQC,55.55469894,-133.102005,0.0,-9.0,A,America/Anchorage,airport,OurAirports,Klawock,AK,2,AK,Alaska,1785533
170,76,Quinhagak Airport,Quinhagak,United States,KWN,PAQH,59.7551,-161.845,42.0,-9.0,A,America/Anchorage,airport,OurAirports,Quinhagak,AK,2,AK,Alaska,1785533
171,77,Kotlik Airport,Kotlik,United States,KOT,PFKO,63.0306015,-163.5330048,15.0,-9.0,A,America/Anchorage,airport,OurAirports,Kotlik,AK,2,AK,Alaska,1785533
172,78,Koyukuk Airport,Koyukuk,United States,KYU,PFKU,64.87609863,-157.727005,149.0,-9.0,A,America/Anchorage,airport,OurAirports,Koyukuk,AK,2,AK,Alaska,1785533
173,79,Scammon Bay Airport,Scammon Bay,United States,SCM,PACM,61.84529877,-165.5709991,14.0,-9.0,A,America/Anchorage,airport,OurAirports,Scammon Bay,AK,2,AK,Alaska,1785533
174,72,Nondalton Airport,Nondalton,United States,NNL,PANO,59.98020172,-154.8390045,314.0,-9.0,A,America/Anchorage,airport,OurAirports,Nondalton,AK,2,AK,Alaska,1785533
175,7211,Pedro Bay Airport,Pedro Bay,United States,PDB,\N,59.782222,-154.1325,45.0,-9.0,A,America/Anchorage,airport,User,Pedro Bay,AK,2,AK,Alaska,1785533
176,7212,Nunapitchuk Airport,Nunapitchuk,United States,NUP,\N,60.905833,-162.439167,12.0,-9.0,A,America/Anchorage,airport,User,Nunapitchuk,AK,2,AK,Alaska,1785533
177,7213,Kongiganak Airport,Kongiganak,United States,KKH,PADY,59.96080017,-162.8809967,30.0,-9.0,A,America/Anchorage,airport,OurAirports,Kongiganak,AK,2,AK,Alaska,1785533
178,7214,Nikolai Airport,Nikolai,United States,NIB,PAFS,63.0186,-154.358002,441.0,-9.0,A,America/Anchorage,airport,OurAirports,Nikolai,AK,2,AK,Alaska,1785533
179,7215,Takotna Airport,Takotna,United States,TCT,\N,62.971944,-156.082778,825.0,-9.0,A,America/Anchorage,airport,User,Takotna,AK,2,AK,Alaska,1785533
180,7216,Pilot Station Airport,Pilot Station,United States,PQS,\N,61.934444,-162.899444,305.0,-9.0,A,America/Anchorage,airport,User,Pilot Station,AK,2,AK,Alaska,1785533
181,7217,Akiak Airport,Akiak,United States,AKI,PFAK,60.9029007,-161.2310028,30.0,-9.0,A,America/Anchorage,airport,OurAirports,Akiak,AK,2,AK,Alaska,1785533
182,7218,Tuluksak Airport,Tuluksak,United States,TLT,\N,61.096944,-160.969444,30.0,-9.0,A,America/Anchorage,airport,User,Tuluksak,AK,2,AK,Alaska,1785533
183,7219,Grayling Airport,Grayling,United States,KGX,\N,62.894444,-160.065,99.0,-9.0,A,America/Anchorage,airport,User,Grayling,AK,2,AK,Alaska,1785533
184,72,Wainwright Airport,Wainwright,United States,AIN,PAWI,70.63800049,-159.9949951,41.0,-9.0,A,America/Anchorage,airport,OurAirports,Wainwright,AK,2,AK,Alaska,1785533
185,7233,Chenega Bay Airport,Chenega,United States,NCN,PFCB,60.07730103,-147.9920044,72.0,-9.0,A,America/Anchorage,airport,OurAirports,Chenega,AK,2,AK,Alaska,1785533
186,7235,Tok Junction Airport,Tok,United States,TKJ,PFTO,63.32949829,-142.9539948,1639.0,-9.0,A,America/Anchorage,airport,OurAirports,Tok,AK,2,AK,Alaska,1785533
187,9746,Tok Airport,Tok,United States,\N,PATJ,63.303333,-143.001111,1670.0,-9.0,A,America/Anchorage,airport,OurAirports,Tok,AK,2,AK,Alaska,1785533
188,7236,Circle City /New/ Airport,Circle,United States,IRC,PACR,65.830498,-144.076008,613.0,-9.0,A,America/Anchorage,airport,OurAirports,Circle,AK,2,AK,Alaska,1785533
189,7237,Coffman Cove Seaplane Base,Coffman Cove,United States,KCC,\N,56.014722,-132.833889,0.0,-9.0,A,America/Anchorage,airport,User,Coffman Cove,AK,2,AK,Alaska,1785533
190,7238,Crooked Creek Airport,Crooked Creek,United States,CKD,\N,61.867778,-158.135,178.0,-9.0,A,America/Anchorage,airport,User,Crooked Creek,AK,2,AK,Alaska,1785533
191,7239,Red Devil Airport,Red Devil,United States,RDV,\N,61.788056,-157.350278,174.0,-9.0,A,America/Anchorage,airport,User,Red Devil,AK,2,AK,Alaska,1785533
192,72,Sleetmute Airport,Sleetmute,United States,SLQ,PASL,61.70050049,-157.1660004,190.0,-9.0,A,America/Anchorage,airport,OurAirports,Sleetmute,AK,2,AK,Alaska,1785533
193,7241,Stony River 2 Airport,Stony River,United States,SRV,\N,61.7875,-156.591111,230.0,-9.0,A,America/Anchorage,airport,User,Stony River,AK,2,AK,Alaska,1785533
194,7242,Healy River Airport,Healy,United States,\N,PAHV,63.86619949,-148.9689941,1263.0,-9.0,A,America/Anchorage,airport,OurAirports,Healy,AK,2,AK,Alaska,1785533
195,83,Denali Rail,Healy,United States,\N,\N,63.7306,-148.9137333,1730.0,-9.0,A,America/Anchorage,station,User,Healy,AK,2,AK,Alaska,1785533
196,7245,Minchumina Airport,Lake Minchumina,United States,LMA,PAMH,63.886002,-152.302002,678.0,-9.0,A,America/Anchorage,airport,OurAirports,Lake Minchumina,AK,2,AK,Alaska,1785533
197,7246,Manley Hot Springs Airport,Manley Hot Springs,United States,MLY,PAML,64.99759674,-150.6439972,270.0,-9.0,A,America/Anchorage,airport,OurAirports,Manley Hot Springs,AK,2,AK,Alaska,1785533
198,7247,St. George Airport,St. George,United States,\N,\N,56.577222,-169.663611,125.0,-9.0,A,America/Anchorage,airport,User,St. George,AK,2,AK,Alaska,1785533
199,7248,Tatitlek Airport,Tatitlek,United States,TEK,\N,60.8725,-146.691111,62.0,-9.0,A,America/Anchorage,airport,User,Tatitlek,AK,2,AK,Alaska,1785533
200,7691,Whittier Airport,Whittier,United States,\N,PAWR,60.77719879,-148.7220001,30.0,-9.0,U,America/Anchorage,airport,OurAirports,Whittier,AK,2,AK,Alaska,1785533
201,31,Whittier Port,Whittier,United States,\N,\N,60.774174,-148.677649,0.0,-9.0,A,America/Anchorage,port,User,Whittier,AK,2,AK,Alaska,1785533
202,9513,Ferry Terminal,Whittier,United States,\N,WHIT,60.776566,-148.683367,0.0,-9.0,A,America/Anchorage,port,User,Whittier,AK,2,AK,Alaska,1785533
203,7692,Soldotna Airport,Soldotna,United States,SXQ,PASX,60.47570038,-151.0339966,113.0,-9.0,U,America/Anchorage,airport,OurAirports,Soldotna,AK,2,AK,Alaska,1785533
204,7985,Sterling Municipal Airport,Sterling,United States,STK,KSTK,40.61529922,-103.2649994,4040.0,-7.0,A,America/Denver,airport,OurAirports,Sterling,AK,2,AK,Alaska,1785533
205,85,Spring Hill Airport,Sterling,United States,70N,\N,41.3473569,-75.4158972,1729.0,-5.0,A,America/New_York,airport,User,Sterling,AK,2,AK,Alaska,1785533
206,8196,Atmautluak Airport,Atmautluak,United States,\N,\N,60.866667,-162.273056,18.0,-9.0,A,America/Anchorage,airport,User,Atmautluak,AK,2,AK,Alaska,1785533
207,8197,Atmautluak Airport,Atmautluak,United States,\N,\N,60.866667,-162.273056,18.0,-9.0,A,America/Anchorage,airport,User,Atmautluak,AK,2,AK,Alaska,1785533
208,8198,Atmautluak Airport,Atmautluak,United States,369,\N,60.866667,-162.273056,18.0,-9.0,A,America/Anchorage,airport,User,Atmautluak,AK,2,AK,Alaska,1785533
209,9743,Atmautluak Airport,Atmautluak,United States,4A2,\N,60.866667,-162.273056,17.0,-9.0,A,America/Anchorage,airport,User,Atmautluak,AK,2,AK,Alaska,1785533
210,8199,Nightmute Airport,Nightmute,United States,NME,PAGT,60.47100067,-164.701004,4.0,-9.0,A,America/Anchorage,airport,OurAirports,Nightmute,AK,2,AK,Alaska,1785533
211,80,Toksook Bay Airport,Toksook Bay,United States,OOK,PAOO,60.54140091,-165.0870056,59.0,-9.0,A,America/Anchorage,airport,OurAirports,Toksook Bay,AK,2,AK,Alaska,1785533
212,81,Tununak Airport,Tununak,United States,TNK,\N,60.575556,-165.271667,14.0,-9.0,A,America/Anchorage,airport,User,Tununak,AK,2,AK,Alaska,1785533
213,82,Goodnews Airport,Goodnews Bay,United States,GNU,\N,59.1175,-161.5775,15.0,-9.0,A,America/Anchorage,airport,User,Goodnews Bay,AK,2,AK,Alaska,1785533
214,83,Newtok Airport,Newtok,United States,WWT,\N,60.939167,-164.641111,25.0,-9.0,U,America/Anchorage,airport,User,Newtok,AK,2,AK,Alaska,1785533
215,8219,Silver Springs Airport,Silver Springs,United States,\N,KSPZ,39.40299988,-119.2509995,4269.0,-8.0,A,America/Los_Angeles,airport,OurAirports,Silver Springs,AK,2,AK,Alaska,1785533
216,8681,St Paul Downtown Holman Field,St. Paul,United States,STP,KSTP,44.93450165,-93.05999756,705.0,-6.0,A,America/Chicago,airport,OurAirports,St. Paul,AK,2,AK,Alaska,1785533
217,9739,Napakiak Airport,Napakiak,United States,WNA,PANA,60.69029999,-161.9790039,17.0,-9.0,A,America/Anchorage,airport,OurAirports,Napakiak,AK,2,AK,Alaska,1785533
218,9741,Stevens Village Airport,Stevens Village,United States,SVS,\N,66.016944,-149.054444,329.0,-9.0,A,America/Anchorage,airport,User,Stevens Village,AK,2,AK,Alaska,1785533
219,9742,Akiachak Airport,Akiachak,United States,KKI,\N,60.906111,-161.426944,25.0,-9.0,A,America/Anchorage,airport,User,Akiachak,AK,2,AK,Alaska,1785533
220,9744,Napaskiak Airport,Napaskiak,United States,PKA,PAPK,60.70289993,-161.7779999,24.0,-9.0,A,America/Anchorage,airport,OurAirports,Napaskiak,AK,2,AK,Alaska,1785533
221,793,Chitina Airport,Chitina,United States,CXC,\N,61.515833,-144.436667,1.0,-9.0,A,\N,airport,User,Chitina,AK,2,AK,Alaska,1785533
222,137,Seldovia Airport,Seldovia,United States,SOV,PASO,59.44240189,-151.7039948,29.0,-9.0,A,\N,airport,OurAirports,Seldovia,AK,2,AK,Alaska,1785533
223,3415,Hilo International Airport,Hilo,United States,ITO,PHTO,19.72139931,-155.0480042,38.0,-10.0,N,Pacific/Honolulu,airport,OurAirports,Hilo,HI,15,HI,Hawaii,1779782
224,3445,Hana Airport,Hana,United States,HNM,PHHN,20.79560089,-156.0140076,78.0,-10.0,A,Pacific/Honolulu,airport,OurAirports,Hana,HI,15,HI,Hawaii,1779782
225,3456,Kahului Airport,Kahului,United States,OGG,PHOG,20.8986,-156.429993,54.0,-10.0,N,Pacific/Honolulu,airport,OurAirports,Kahului,HI,15,HI,Hawaii,1779782
226,3499,Wheeler Army Airfield,Wahiawa,United States,HHI,PHHI,21.48349953,-158.0399933,837.0,-10.0,A,Pacific/Honolulu,airport,OurAirports,Wahiawa,HI,15,HI,Hawaii,1779782
227,32,Lihue Airport,Lihue,United States,LIH,PHLI,21.97599983,-159.3390045,153.0,-10.0,N,Pacific/Honolulu,airport,OurAirports,Lihue,HI,15,HI,Hawaii,1779782
228,3728,Daniel K Inouye International Airport,Honolulu,United States,HNL,PHNL,21.32062,-157.924228,13.0,-10.0,N,Pacific/Honolulu,airport,OurAirports,Honolulu,HI,15,HI,Hawaii,1779782
229,55,Hickam Air Force Base,Honolulu,United States,\N,PHIK,21.318681,-157.922427,13.0,-10.0,N,Pacific/Honolulu,airport,User,Honolulu,HI,15,HI,Hawaii,1779782
230,3783,Moffett Federal Airfield,Mountain View,United States,NUQ,KNUQ,37.4161,-122.049004,32.0,-8.0,A,America/Los_Angeles,airport,OurAirports,Mountain View,HI,15,HI,Hawaii,1779782
231,9441,Downtown Mountain View Station,Mountain View,United States,\N,\N,37.3943934,-122.075872,15.0,-8.0,A,America/Los_Angeles,station,User,Mountain View,HI,15,HI,Hawaii,1779782
232,9984,San Antonio Station,Mountain View,United States,\N,\N,37.407157,-122.107231,40.0,-8.0,A,\N,station,User,Mountain View,HI,15,HI,Hawaii,1779782
233,11587,San Antonio Caltrain Station,Mountain View,United States,\N,\N,37.407222,-122.106944,45.0,-8.0,A,\N,station,User,Mountain View,HI,15,HI,Hawaii,1779782
234,6415,Waikoloa Heliport,Waikoloa Village,United States,WKL,HI07,19.9205,-155.8607,119.0,-10.0,N,Pacific/Honolulu,airport,OurAirports,Waikoloa Village,HI,15,HI,Hawaii,1779782
235,8824,Kalaeloa Airport,Kapolei,United States,JRF,PHJR,21.3074,-158.070009,30.0,-10.0,U,Pacific/Honolulu,airport,OurAirports,Kapolei,HI,15,HI,Hawaii,1779782
236,3416,Orlando Executive Airport,Orlando,United States,ORL,KORL,28.5455,-81.332901,113.0,-5.0,A,America/New_York,airport,OurAirports,Orlando,FL,12,FL,Florida,294478
237,3878,Orlando International Airport,Orlando,United States,MCO,KMCO,28.42939949,-81.30899811,96.0,-5.0,A,America/New_York,airport,OurAirports,Orlando,FL,12,FL,Florida,294478
238,82,Amtrak Station,Orlando,United States,\N,\N,28.5259,-81.3813,82.0,-5.0,A,America/New_York,station,User,Orlando,FL,12,FL,Florida,294478
239,198,Air Orlando Heliport,Orlando,United States,\N,2FD7,28.43560028,-81.47309875,120.0,-5.0,A,\N,airport,OurAirports,Orlando,FL,12,FL,Florida,294478
240,3444,Whiting Field Naval Air Station - North,Milton,United States,NSE,KNSE,30.7241993,-87.02189636,199.0,-6.0,A,America/Chicago,airport,OurAirports,Milton,FL,12,FL,Florida,294478
241,3447,Trenton Mercer Airport,Trenton,United States,TTN,KTTN,40.27669907,-74.81349945,213.0,-5.0,A,America/New_York,airport,OurAirports,Trenton,FL,12,FL,Florida,294478
242,7366,Trenton Amtrak Station,Trenton,United States,\N,\N,40.21889,-74.75417,1.0,-5.0,A,America/New_York,station,User,Trenton,FL,12,FL,Florida,294478
243,8547,Trenton-Robbinsville Airport,Trenton,United States,N87,\N,40.2139444,-74.6017778,118.0,-5.0,A,America/New_York,airport,User,Trenton,FL,12,FL,Florida,294478
244,3453,Metropolitan Oakland International Airport,Oakland,United States,OAK,KOAK,37.721298,-122.221001,9.0,-8.0,A,America/Los_Angeles,airport,OurAirports,Oakland,FL,12,FL,Florida,294478
245,94,Oakland Jack London Square Station,Oakland,United States,\N,\N,37.7935,-122.2719,13.0,-8.0,A,America/Los_Angeles,station,User,Oakland,FL,12,FL,Florida,294478
246,3459,Dane County Regional Truax Field,Madison,United States,MSN,KMSN,43.13990021,-89.33750153,887.0,-6.0,A,America/Chicago,airport,OurAirports,Madison,FL,12,FL,Florida,294478
247,8512,Madison Municipal Airport,Madison,United States,\N,K52A,33.61209869,-83.46040344,694.0,-5.0,A,America/New_York,airport,OurAirports,Madison,FL,12,FL,Florida,294478
248,9463,Madison NJT Station,Madison,United States,\N,MDSN,40.757028,-74.415194,266.0,-5.0,A,America/New_York,station,User,Madison,FL,12,FL,Florida,294478
249,3464,Fort Lauderdale Executive Airport,Fort Lauderdale,United States,FXE,KFXE,26.19729996,-80.17070007,13.0,-5.0,A,America/New_York,airport,OurAirports,Fort Lauderdale,FL,12,FL,Florida,294478
250,3533,Fort Lauderdale Hollywood International Airport,Fort Lauderdale,United States,FLL,KFLL,26.072599,-80.152702,9.0,-5.0,A,America/New_York,airport,OurAirports,Fort Lauderdale,FL,12,FL,Florida,294478
251,9882,Fort Lauderdale Station,Fort Lauderdale,United States,\N,\N,26.119942,-80.169808,50.0,-5.0,A,America/New_York,station,User,Fort Lauderdale,FL,12,FL,Florida,294478
252,9883,Cypress Creek Station,Fort Lauderdale,United States,\N,\N,26.201194,-80.150369,50.0,-5.0,A,America/New_York,station,User,Fort Lauderdale,FL,12,FL,Florida,294478
253,3468,North Perry Airport,Hollywood,United States,HWO,KHWO,26.0012,-80.2407,8.0,-5.0,A,America/New_York,airport,OurAirports,Hollywood,FL,12,FL,Florida,294478
254,98,Hollywood Station,Hollywood,United States,\N,\N,26.012411,-80.167658,50.0,-5.0,A,America/New_York,station,User,Hollywood,FL,12,FL,Florida,294478
255,9881,Sheridan Street Station,Hollywood,United States,\N,\N,26.031717,-80.167774,50.0,-5.0,A,America/New_York,station,User,Hollywood,FL,12,FL,Florida,294478
256,3472,Gainesville Regional Airport,Gainesville,United States,GNV,KGNV,29.69009972,-82.27179718,152.0,-5.0,A,America/New_York,airport,OurAirports,Gainesville,FL,12,FL,Florida,294478
257,88,Lee Gilmer Memorial Airport,Gainesville,United States,GVL,KGVL,34.27259827,-83.8302002,1276.0,-5.0,A,America/New_York,airport,OurAirports,Gainesville,FL,12,FL,Florida,294478
258,3473,Memphis International Airport,Memphis,United States,MEM,KMEM,35.04240036,-89.97669983,341.0,-6.0,A,America/Chicago,airport,OurAirports,Memphis,FL,12,FL,Florida,294478
259,199,General Dewitt Spain Airport,Memphis,United States,\N,KM01,35.20069885,-90.05400085,225.0,-4.0,A,\N,airport,OurAirports,Memphis,FL,12,FL,Florida,294478
260,3479,Little Rock Air Force Base,Jacksonville,United States,LRF,KLRF,34.91690063,-92.14969635,311.0,-6.0,A,America/Chicago,airport,OurAirports,Jacksonville,FL,12,FL,Florida,294478
261,33,Jacksonville Naval Air Station (Towers Field),Jacksonville,United States,NIP,KNIP,30.2358,-81.680603,21.0,-5.0,A,America/New_York,airport,OurAirports,Jacksonville,FL,12,FL,Florida,294478
262,37,New River MCAS /H/ /Mccutcheon Fld/ Airport,Jacksonville,United States,\N,KNCA,34.70840073,-77.43969727,26.0,-5.0,A,America/New_York,airport,OurAirports,Jacksonville,FL,12,FL,Florida,294478
263,3712,Jacksonville International Airport,Jacksonville,United States,JAX,KJAX,30.49410057,-81.68789673,30.0,-5.0,A,America/New_York,airport,OurAirports,Jacksonville,FL,12,FL,Florida,294478
264,7496,Cecil Airport,Jacksonville,United States,VQQ,KVQQ,30.21870041,-81.87670136,81.0,-5.0,A,America/New_York,airport,OurAirports,Jacksonville,FL,12,FL,Florida,294478
265,4,Jacksonville Station,Jacksonville,United States,\N,\N,30.3661,-81.72339,19.0,-5.0,A,\N,station,User,Jacksonville,FL,12,FL,Florida,294478
266,3486,Cleveland Hopkins International Airport,Cleveland,United States,CLE,KCLE,41.4117012,-81.84980011,791.0,-5.0,A,America/New_York,airport,OurAirports,Cleveland,FL,12,FL,Florida,294478
267,8544,Burke Lakefront Airport,Cleveland,United States,BKL,KBKL,41.51750183,-81.6832962,583.0,-5.0,A,America/New_York,airport,OurAirports,Cleveland,FL,12,FL,Florida,294478
268,8793,Hardwick Field,Cleveland,United States,HDI,KHDI,35.2201004,-84.83239746,874.0,-5.0,A,America/New_York,airport,OurAirports,Cleveland,FL,12,FL,Florida,294478
269,9445,Cleveland Greyhound Station,Cleveland,United States,\N,\N,41.5034,-81.6822,679.0,-5.0,A,America/New_York,station,User,Cleveland,FL,12,FL,Florida,294478
270,9549,Cleveland Lakefront Station,Cleveland,United States,\N,\N,41.505787,-81.696172,650.0,-5.0,A,America/New_York,station,User,Cleveland,FL,12,FL,Florida,294478
271,3487,Dover Air Force Base,Dover,United States,DOV,KDOV,39.12950134,-75.46600342,24.0,-5.0,A,America/New_York,airport,OurAirports,Dover,FL,12,FL,Florida,294478
272,3489,Tipton Airport,Fort Meade,United States,FME,KFME,39.08539963,-76.75939941,150.0,-5.0,A,America/New_York,airport,OurAirports,Fort Meade,FL,12,FL,Florida,294478
273,35,Miramar Marine Corps Air Station - Mitscher Field,Miramar,United States,NKX,KNKX,32.86840057,-117.1429977,477.0,-8.0,A,America/Los_Angeles,airport,OurAirports,Miramar,FL,12,FL,Florida,294478
274,37,Hurlburt Field,Mary Esther,United States,\N,KHRT,30.42779922,-86.68930054,38.0,-6.0,A,America/Chicago,airport,OurAirports,Mary Esther,FL,12,FL,Florida,294478
275,38,Jack Northrop Field Hawthorne Municipal Airport,Hawthorne,United States,HHR,KHHR,33.922798,-118.334999,66.0,-8.0,A,America/Los_Angeles,airport,OurAirports,Hawthorne,FL,12,FL,Florida,294478
276,3548,Albert Whitted Airport,St. Petersburg,United States,SPG,KSPG,27.7651,-82.626999,7.0,-5.0,A,America/New_York,airport,OurAirports,St. Petersburg,FL,12,FL,Florida,294478
277,3617,St Petersburg Clearwater International Airport,St. Petersburg,United States,PIE,KPIE,27.91020012,-82.68740082,11.0,-5.0,A,America/New_York,airport,OurAirports,St. Petersburg,FL,12,FL,Florida,294478
278,3549,Page Field,Fort Myers,United States,FMY,KFMY,26.58659935,-81.86329651,17.0,-5.0,A,America/New_York,airport,OurAirports,Fort Myers,FL,12,FL,Florida,294478
279,3793,Southwest Florida International Airport,Fort Myers,United States,RSW,KRSW,26.53619957,-81.75520325,30.0,-5.0,A,America/New_York,airport,OurAirports,Fort Myers,FL,12,FL,Florida,294478
280,3555,Bob Sikes Airport,Crestview,United States,CEW,KCEW,30.77879906,-86.52210236,213.0,-6.0,A,America/Chicago,airport,OurAirports,Crestview,FL,12,FL,Florida,294478
281,3563,Pensacola Naval Air Station/Forrest Sherman Field,Pensacola,United States,NPA,KNPA,30.35269928,-87.31860352,28.0,-6.0,A,America/Chicago,airport,OurAirports,Pensacola,FL,12,FL,Florida,294478
282,3564,Pensacola Regional Airport,Pensacola,United States,PNS,KPNS,30.47340012,-87.18659973,121.0,-6.0,A,America/Chicago,airport,OurAirports,Pensacola,FL,12,FL,Florida,294478
283,3576,Miami International Airport,Miami,United States,MIA,KMIA,25.79319954,-80.29060364,8.0,-5.0,A,America/New_York,airport,OurAirports,Miami,FL,12,FL,Florida,294478
284,3721,Dade Collier Training and Transition Airport,Miami,United States,TNT,KTNT,25.86179924,-80.89700317,13.0,-5.0,A,America/New_York,airport,OurAirports,Miami,FL,12,FL,Florida,294478
285,3791,Opa-locka Executive Airport,Miami,United States,OPF,KOPF,25.907,-80.278397,8.0,-5.0,A,America/New_York,airport,OurAirports,Miami,FL,12,FL,Florida,294478
286,7923,Miami Seaplane Base,Miami,United States,MPB,\N,25.7783,-80.1703,0.0,-5.0,A,America/New_York,airport,User,Miami,FL,12,FL,Florida,294478
287,3588,Greenwoodâ€“Leflore Airport,Greenwood,United States,GWO,KGWO,33.49430084,-90.08470154,162.0,-6.0,A,America/Chicago,airport,OurAirports,Greenwood,FL,12,FL,Florida,294478
288,6893,Galt Field Airport,Greenwood,United States,10C,\N,42.4028889,-88.3751111,875.0,-6.0,U,America/Chicago,airport,User,Greenwood,FL,12,FL,Florida,294478
289,3593,Palm Beach County Park Airport,West Palm Beach,United States,LNA,KLNA,26.59300041,-80.08509827,14.0,-5.0,A,America/New_York,airport,OurAirports,West Palm Beach,FL,12,FL,Florida,294478
290,3722,Palm Beach International Airport,West Palm Beach,United States,PBI,KPBI,26.68320084,-80.09559631,19.0,-5.0,A,America/New_York,airport,OurAirports,West Palm Beach,FL,12,FL,Florida,294478
291,486,West Palm Beach Station,West Palm Beach,United States,\N,\N,26.712311,-80.062297,20.0,-5.0,A,\N,station,User,West Palm Beach,FL,12,FL,Florida,294478
292,3621,San Antonio International Airport,San Antonio,United States,SAT,KSAT,29.53370094,-98.46980286,809.0,-6.0,A,America/Chicago,airport,OurAirports,San Antonio,FL,12,FL,Florida,294478
293,3727,Lackland Air Force Base,San Antonio,United States,SKF,KSKF,29.38419914,-98.58110046,691.0,-6.0,A,America/Chicago,airport,OurAirports,San Antonio,FL,12,FL,Florida,294478
294,3757,Randolph Air Force Base,San Antonio,United States,RND,KRND,29.52969933,-98.27890015,761.0,-6.0,A,America/Chicago,airport,OurAirports,San Antonio,FL,12,FL,Florida,294478
295,9795,Kestrel Airpark,San Antonio,United States,\N,K1T7,29.81270027,-98.4253006,1250.0,-6.0,A,America/Chicago,airport,OurAirports,San Antonio,FL,12,FL,Florida,294478
296,3632,Wright AAF (Fort Stewart)/Midcoast Regional Airport,Wright,United States,LIY,KLHW,31.889099,-81.562303,45.0,-5.0,A,America/New_York,airport,OurAirports,Wright,FL,12,FL,Florida,294478
297,3646,Tampa International Airport,Tampa,United States,TPA,KTPA,27.97550011,-82.53320313,26.0,-5.0,A,America/New_York,airport,OurAirports,Tampa,FL,12,FL,Florida,294478
298,3789,Mac Dill Air Force Base,Tampa,United States,MCF,KMCF,27.84930038,-82.52120209,14.0,-5.0,A,America/New_York,airport,OurAirports,Tampa,FL,12,FL,Florida,294478
299,8339,Tampa Executive Airport,Tampa,United States,VDF,\N,28.0139772,-82.3452778,22.0,-5.0,A,America/New_York,airport,User,Tampa,FL,12,FL,Florida,294478
300,959,Tampa Union Station,Tampa,United States,\N,\N,27.952222,-82.451111,20.0,-5.0,A,\N,station,User,Tampa,FL,12,FL,Florida,294478
301,11153,Peter O Knight Airport,Tampa,United States,TPF,KTPF,27.91559982,-82.44930267,8.0,-5.0,U,\N,airport,OurAirports,Tampa,FL,12,FL,Florida,294478
302,3659,Sloulin Field International Airport,Williston,United States,ISN,KISN,48.17789841,-103.6419983,1982.0,-6.0,A,America/Chicago,airport,OurAirports,Williston,FL,12,FL,Florida,294478
303,3669,Tyndall Air Force Base,Panama City,United States,PAM,KPAM,30.06959915,-85.57540131,17.0,-6.0,A,America/Chicago,airport,OurAirports,Panama City,FL,12,FL,Florida,294478
304,73,Panama City-Bay Co International Airport,Panama City,United States,PFN,KPFN,30.212099,-85.6828,20.0,-6.0,A,America/Chicago,airport,OurAirports,Panama City,FL,12,FL,Florida,294478
305,7669,Northwest Florida Beaches International Airport,Panama City,United States,ECP,KECP,30.357106,-85.795414,69.0,-6.0,A,America/Chicago,airport,OurAirports,Panama City,FL,12,FL,Florida,294478
306,3671,Melbourne International Airport,Melbourne,United States,MLB,KMLB,28.10280037,-80.64530182,33.0,-5.0,A,America/New_York,airport,OurAirports,Melbourne,FL,12,FL,Florida,294478
307,3688,Vero Beach Regional Airport,Vero Beach,United States,VRB,KVRB,27.6556,-80.417901,24.0,-5.0,A,America/New_York,airport,OurAirports,Vero Beach,FL,12,FL,Florida,294478
308,3694,Altoona Blair County Airport,Altoona,United States,AOO,KAOO,40.29639816,-78.31999969,1503.0,-5.0,A,America/New_York,airport,OurAirports,Altoona,FL,12,FL,Florida,294478
309,3698,Tallahassee Regional Airport,Tallahassee,United States,TLH,KTLH,30.39649963,-84.35030365,81.0,-5.0,A,America/New_York,airport,OurAirports,Tallahassee,FL,12,FL,Florida,294478
310,3738,Brownsville South Padre Island International Airport,Brownsville,United States,BRO,KBRO,25.90679932,-97.42590332,22.0,-6.0,A,America/Chicago,airport,OurAirports,Brownsville,FL,12,FL,Florida,294478
311,37,Cape May County Airport,Wildwood,United States,WWD,KWWD,39.00849915,-74.90830231,23.0,-5.0,A,America/New_York,airport,OurAirports,Wildwood,FL,12,FL,Florida,294478
312,3746,Naval Air Station Key West/Boca Chica Field,Key West,United States,NQX,KNQX,24.57579994,-81.68890381,6.0,-5.0,A,America/New_York,airport,OurAirports,Key West,FL,12,FL,Florida,294478
313,3875,Key West International Airport,Key West,United States,EYW,KEYW,24.55610085,-81.75959778,3.0,-5.0,A,America/New_York,airport,OurAirports,Key West,FL,12,FL,Florida,294478
314,8475,Sugar Loaf Shores Airport,Key West,United States,\N,7FA1,24.6487999,-81.57980347,4.0,-5.0,A,America/New_York,airport,OurAirports,Key West,FL,12,FL,Florida,294478
315,9676,Key West Cruise Port,Key West,United States,\N,\N,24.561193,-81.80108,0.0,-5.0,A,America/New_York,port,User,Key West,FL,12,FL,Florida,294478
316,3762,Princeton Municipal Airport,Princeton,United States,\N,KPNM,45.55989838,-93.60820007,980.0,-6.0,A,America/Chicago,airport,OurAirports,Princeton,FL,12,FL,Florida,294478
317,9956,Princeton Station,Princeton,United States,\N,\N,41.385191,-89.466815,780.0,-6.0,A,\N,station,User,Princeton,FL,12,FL,Florida,294478
318,3798,Homestead ARB Airport,Homestead,United States,HST,KHST,25.48859978,-80.38359833,5.0,-5.0,A,America/New_York,airport,OurAirports,Homestead,FL,12,FL,Florida,294478
319,9811,Homestead General Aviation Airport,Homestead,United States,X51,\N,25.2995,-80.3325,7.0,-5.0,A,America/New_York,airport,User,Homestead,FL,12,FL,Florida,294478
320,3831,Boca Raton Airport,Boca Raton,United States,BCT,KBCT,26.37849998,-80.10769653,13.0,-5.0,A,America/New_York,airport,OurAirports,Boca Raton,FL,12,FL,Florida,294478
321,645,Boca Raton Station,Boca Raton,United States,\N,\N,26.392596,-80.099076,15.0,-5.0,A,\N,station,User,Boca Raton,FL,12,FL,Florida,294478
322,3838,Watertown International Airport,Watertown,United States,ART,KART,43.9919014,-76.021698,325.0,-5.0,A,America/New_York,airport,OurAirports,Watertown,FL,12,FL,Florida,294478
323,5721,Watertown Regional Airport,Watertown,United States,ATY,KATY,44.91400146,-97.15470123,1749.0,-6.0,A,America/Chicago,airport,OurAirports,Watertown,FL,12,FL,Florida,294478
324,3839,Palm Springs International Airport,Palm Springs,United States,PSP,KPSP,33.82970047,-116.5070038,477.0,-8.0,A,America/Los_Angeles,airport,OurAirports,Palm Springs,FL,12,FL,Florida,294478
325,7646,Jacqueline Cochran Regional Airport,Palm Springs,United States,TRM,KTRM,33.62670135,-116.1600037,-115.0,-8.0,A,America/Los_Angeles,airport,OurAirports,Palm Springs,FL,12,FL,Florida,294478
326,7648,Bermuda Dunes Airport,Palm Springs,United States,UDD,KUDD,33.74840164,-116.2750015,73.0,-8.0,A,America/Los_Angeles,airport,OurAirports,Palm Springs,FL,12,FL,Florida,294478
327,3866,Langley Air Force Base,Hampton,United States,LFI,KLFI,37.082901,-76.36049652,11.0,-5.0,A,America/New_York,airport,OurAirports,Hampton,FL,12,FL,Florida,294478
328,66,Henry County Airport,Hampton,United States,\N,K4A7,33.389099,-84.332397,874.0,-5.0,A,America/New_York,airport,OurAirports,Hampton,FL,12,FL,Florida,294478
329,3873,Destin-Ft Walton Beach Airport,Valparaiso,United States,VPS,KVPS,30.4832,-86.525398,87.0,-6.0,A,America/Chicago,airport,OurAirports,Valparaiso,FL,12,FL,Florida,294478
330,6848,Porter County Municipal Airport,Valparaiso,United States,NPZ,\N,41.4539722,-87.0070833,770.0,-6.0,A,America/Chicago,airport,User,Valparaiso,FL,12,FL,Florida,294478
331,39,Daytona Beach International Airport,Daytona Beach,United States,DAB,KDAB,29.179899,-81.058098,34.0,-5.0,A,America/New_York,airport,OurAirports,Daytona Beach,FL,12,FL,Florida,294478
332,08,Piedmont Triad International Airport,Greensboro,United States,GSO,KGSO,36.09780121,-79.93730164,925.0,-5.0,A,America/New_York,airport,OurAirports,Greensboro,FL,12,FL,Florida,294478
333,12,Naples Municipal Airport,Naples,United States,APF,KAPF,26.15259933,-81.77529907,8.0,-5.0,A,America/New_York,airport,OurAirports,Naples,FL,12,FL,Florida,294478
334,34,Greenville Spartanburg International Airport,Greenville,United States,GSP,KGSP,34.89569855,-82.21890259,964.0,-5.0,A,America/New_York,airport,OurAirports,Greenville,FL,12,FL,Florida,294478
335,61,Mid Delta Regional Airport,Greenville,United States,GLH,KGLH,33.48289871,-90.98560333,131.0,-6.0,A,America/Chicago,airport,OurAirports,Greenville,FL,12,FL,Florida,294478
336,6959,Pitt Greenville Airport,Greenville,United States,PGV,KPGV,35.6352005,-77.38529968,26.0,-5.0,A,America/New_York,airport,OurAirports,Greenville,FL,12,FL,Florida,294478
337,131,Donaldson Field Airport,Greenville,United States,GDC,KGYH,34.758301,-82.376404,955.0,-4.0,A,\N,airport,OurAirports,Greenville,FL,12,FL,Florida,294478
338,105,Greenville Downtown Airport,Greenville,United States,GMU,KGMU,34.84790039,-82.34999847,1048.0,-4.0,A,\N,airport,OurAirports,Greenville,FL,12,FL,Florida,294478
339,38,Gulfport Biloxi International Airport,Gulfport,United States,GPT,KGPT,30.40730095,-89.07009888,28.0,-6.0,A,America/Chicago,airport,OurAirports,Gulfport,FL,12,FL,Florida,294478
340,44,La Crosse Municipal Airport,La Crosse,United States,LSE,KLSE,43.879002,-91.256699,655.0,-6.0,A,America/Chicago,airport,OurAirports,La Crosse,FL,12,FL,Florida,294478
341,5,La Crosse Amtrak Station,La Crosse,United States,\N,\N,43.8334,-91.2472,648.0,-6.0,A,\N,station,User,La Crosse,FL,12,FL,Florida,294478
342,67,Sarasota Bradenton International Airport,Sarasota,United States,SRQ,KSRQ,27.39539909,-82.55439758,30.0,-5.0,A,America/New_York,airport,OurAirports,Sarasota,FL,12,FL,Florida,294478
343,4167,Orlando Sanford International Airport,Sanford,United States,SFB,KSFB,28.77759933,-81.23750305,55.0,-5.0,A,America/New_York,airport,OurAirports,Sanford,FL,12,FL,Florida,294478
344,4253,Cuyahoga County Airport,Richmond Heights,United States,CGF,KCGF,41.56510162,-81.48639679,879.0,-5.0,A,America/New_York,airport,OurAirports,Richmond Heights,FL,12,FL,Florida,294478
345,4336,Abraham Lincoln Capital Airport,Springfield,United States,SPI,KSPI,39.84410095,-89.67790222,598.0,-6.0,A,America/Chicago,airport,OurAirports,Springfield,FL,12,FL,Florida,294478
346,4348,Springfield Branson National Airport,Springfield,United States,SGF,KSGF,37.24570084,-93.38860321,1268.0,-6.0,A,America/Chicago,airport,OurAirports,Springfield,FL,12,FL,Florida,294478
347,78,Springfield-Beckley Municipal Airport,Springfield,United States,SGH,KSGH,39.84030151,-83.84020233,1051.0,-5.0,A,America/New_York,airport,OurAirports,Springfield,FL,12,FL,Florida,294478
348,4338,Cortez Municipal Airport,Cortez,United States,CEZ,KCEZ,37.3030014,-108.6279984,5918.0,-7.0,A,America/Denver,airport,OurAirports,Cortez,FL,12,FL,Florida,294478
349,4343,Renner Field-Goodland Municipal Airport,Goodland,United States,GLD,KGLD,39.37060165,-101.6989975,3656.0,-7.0,A,America/Denver,airport,OurAirports,Goodland,FL,12,FL,Florida,294478
350,4355,Lehigh Valley International Airport,Allentown,United States,ABE,KABE,40.65209961,-75.44080353,393.0,-5.0,A,America/New_York,airport,OurAirports,Allentown,FL,12,FL,Florida,294478
351,5727,Jack Mc Namara Field Airport,Crescent City,United States,CEC,KCEC,41.78020096,-124.2369995,61.0,-8.0,A,America/Los_Angeles,airport,OurAirports,Crescent City,FL,12,FL,Florida,294478
352,5774,Quincy Regional Baldwin Field,Quincy,United States,UIN,KUIN,39.94269943,-91.19460297,768.0,-6.0,A,America/Chicago,airport,OurAirports,Quincy,FL,12,FL,Florida,294478
353,8163,Quincy Municipal Airport,Quincy,United States,2J9,\N,30.5978708,-84.557425,225.0,-5.0,A,America/New_York,airport,User,Quincy,FL,12,FL,Florida,294478
354,6853,Wausau Downtown Airport,Wausau,United States,AUW,KAUW,44.92620087,-89.62660217,1201.0,-6.0,U,America/Chicago,airport,OurAirports,Wausau,FL,12,FL,Florida,294478
355,6993,Kissimmee Gateway Airport,Kissimmee,United States,ISM,KISM,28.28980064,-81.43710327,82.0,-5.0,A,America/New_York,airport,OurAirports,Kissimmee,FL,12,FL,Florida,294478
356,6994,Lake City Gateway Airport,Lake City,United States,LCQ,KLCQ,30.18199921,-82.57689667,201.0,-5.0,A,America/New_York,airport,OurAirports,Lake City,FL,12,FL,Florida,294478
357,6995,Deland Municipal Sidney H Taylor Field,DeLand,United States,\N,KDED,29.06699944,-81.28379822,79.0,-5.0,A,America/New_York,airport,OurAirports,DeLand,FL,12,FL,Florida,294478
358,6996,Haller Airpark,Green Cove Springs,United States,\N,7FL4,29.904057,-81.68515,75.0,-5.0,A,America/New_York,airport,OurAirports,Green Cove Springs,FL,12,FL,Florida,294478
359,56,Charlotte County Airport,Punta Gorda,United States,PGD,KPGD,26.92020035,-81.9905014,26.0,-5.0,A,America/New_York,airport,OurAirports,Punta Gorda,FL,12,FL,Florida,294478
360,69,The Florida Keys Marathon Airport,Marathon,United States,MTH,KMTH,24.726101,-81.051399,5.0,-5.0,A,America/New_York,airport,OurAirports,Marathon,FL,12,FL,Florida,294478
361,71,Point Baker Seaplane Base,Point Baker,United States,KPB,\N,56.351944,-133.6225,0.0,-9.0,A,America/Anchorage,airport,User,Point Baker,FL,12,FL,Florida,294478
362,7514,Destin Executive Airport,Destin,United States,DSI,KDTS,30.40010071,-86.47149658,23.0,-6.0,A,America/Chicago,airport,OurAirports,Destin,FL,12,FL,Florida,294478
363,7621,Bartow Municipal Airport,Bartow,United States,BOW,KBOW,27.94339943,-81.78340149,125.0,-5.0,U,America/New_York,airport,OurAirports,Bartow,FL,12,FL,Florida,294478
364,7656,Witham Field,Stuart,United States,SUA,KSUA,27.18169975,-80.22109985,16.0,-5.0,A,America/New_York,airport,OurAirports,Stuart,FL,12,FL,Florida,294478
365,7661,Pahokee Airport,Pahokee,United States,\N,\N,26.789,-80.692,18.0,-5.0,A,America/New_York,airport,User,Pahokee,FL,12,FL,Florida,294478
366,7663,Palm Beach County Glades Airport,Pahokee,United States,PHK,KPHK,26.78499985,-80.69339752,16.0,-5.0,A,America/New_York,airport,OurAirports,Pahokee,FL,12,FL,Florida,294478
367,7662,Venice Municipal Airport,Venice,United States,VNC,KVNC,27.07159996,-82.44029999,18.0,-5.0,A,America/New_York,airport,OurAirports,Venice,FL,12,FL,Florida,294478
368,7732,Lakeland Linder International Airport,Lakeland,United States,LAL,KLAL,27.988899,-82.018602,142.0,-5.0,A,America/New_York,airport,OurAirports,Lakeland,FL,12,FL,Florida,294478
369,8566,South Lakeland Airport,Lakeland,United States,X49,\N,27.9333581,-82.0439739,110.0,-5.0,A,America/New_York,airport,User,Lakeland,FL,12,FL,Florida,294478
370,7848,Bowling Green Warren County Regional Airport,Bowling Green,United States,BWG,KBWG,36.96450043,-86.41970062,547.0,-6.0,A,America/Chicago,airport,OurAirports,Bowling Green,FL,12,FL,Florida,294478
371,64,Perry-Foley Airport,Perry,United States,40J,\N,30.0692778,-83.5805833,44.0,-5.0,A,America/New_York,airport,User,Perry,FL,12,FL,Florida,294478
372,9784,Perry Municipal Airport,Perry,United States,\N,KF22,36.38560104,-97.27719879,1002.0,-6.0,A,America/Chicago,airport,OurAirports,Perry,FL,12,FL,Florida,294478
373,132,Perry Houston County Airport,Perry,United States,\N,KPXE,32.51060104,-83.76730347,418.0,-4.0,A,\N,airport,OurAirports,Perry,FL,12,FL,Florida,294478
374,8118,Ormond Beach Municipal Airport,Ormond Beach,United States,\N,KOMN,29.30060005,-81.11360168,29.0,-5.0,A,America/New_York,airport,OurAirports,Ormond Beach,FL,12,FL,Florida,294478
375,8125,Suwannee County Airport,Live Oak,United States,24J,\N,30.300125,-83.0246944,104.0,-5.0,A,America/New_York,airport,User,Live Oak,FL,12,FL,Florida,294478
376,8252,Apalachicola Regional Airport,Apalachicola,United States,AAF,KAAF,29.72750092,-85.02749634,20.0,-5.0,A,America/New_York,airport,OurAirports,Apalachicola,FL,12,FL,Florida,294478
377,8268,St. Augustine Airport,St. Augustine,United States,SGJ,\N,29.95925,-81.3397222,10.0,-5.0,A,America/New_York,airport,User,St. Augustine,FL,12,FL,Florida,294478
378,8274,St Lucie County International Airport,Fort Pierce,United States,FPR,KFPR,27.49510002,-80.36830139,24.0,-5.0,A,America/New_York,airport,OurAirports,Fort Pierce,FL,12,FL,Florida,294478
379,83,DeFuniak Springs Airport,DeFuniak Springs,United States,54J,\N,30.7311111,-86.1537778,289.0,-6.0,A,America/Chicago,airport,User,DeFuniak Springs,FL,12,FL,Florida,294478
380,8367,Wellington Municipal Airport,Wellington,United States,\N,KEGT,37.32360077,-97.38829803,1277.0,-6.0,A,America/Chicago,airport,OurAirports,Wellington,FL,12,FL,Florida,294478
381,8379,Pompano Beach Airpark,Pompano Beach,United States,PPM,KPMP,26.24710083,-80.11109924,19.0,-5.0,A,America/New_York,airport,OurAirports,Pompano Beach,FL,12,FL,Florida,294478
382,9884,Pompano Beach Station,Pompano Beach,United States,\N,\N,26.272286,-80.134814,50.0,-5.0,A,America/New_York,station,User,Pompano Beach,FL,12,FL,Florida,294478
383,8422,Palatka Amtrak Station,Palatka,United States,\N,\N,29.649178,-81.640456,16.0,-5.0,A,America/New_York,station,User,Palatka,FL,12,FL,Florida,294478
384,85,Okeechobee County Airport,Okeechobee,United States,OBE,KOBE,27.26280022,-80.84980011,34.0,-5.0,A,America/New_York,airport,OurAirports,Okeechobee,FL,12,FL,Florida,294478
385,485,Okeechobee Amtrak Station,Okeechobee,United States,\N,\N,27.25178,-80.82991,29.0,-5.0,A,\N,station,User,Okeechobee,FL,12,FL,Florida,294478
386,86,Sebring Regional Airport,Sebring,United States,SEF,KSEF,27.45639992,-81.3423996,62.0,-5.0,A,America/New_York,airport,OurAirports,Sebring,FL,12,FL,Florida,294478
387,484,Sebring Station,Sebring,United States,\N,\N,27.496111,-81.434722,140.0,-5.0,A,\N,station,User,Sebring,FL,12,FL,Florida,294478
388,87,Avon Park Executive Airport,Avon Park,United States,AVO,KAVO,27.59119987,-81.52780151,160.0,-5.0,A,America/New_York,airport,OurAirports,Avon Park,FL,12,FL,Florida,294478
389,88,Winter Haven Regional Airport - Gilbert Field,Winter Haven,United States,GIF,KGIF,28.062901,-81.753304,145.0,-5.0,A,America/New_York,airport,OurAirports,Winter Haven,FL,12,FL,Florida,294478
390,483,Winter Haven Amtrak Station,Winter Haven,United States,\N,\N,28.002211,-81.734911,145.0,-5.0,A,\N,station,User,Winter Haven,FL,12,FL,Florida,294478
391,89,Zephyrhills Municipal Airport,Zephyrhills,United States,ZPH,KZPH,28.22820091,-82.15589905,90.0,-5.0,A,America/New_York,airport,OurAirports,Zephyrhills,FL,12,FL,Florida,294478
392,85,Ocala International Airport - Jim Taylor Field,Ocala,United States,OCF,KOCF,29.17259979,-82.22419739,90.0,-5.0,A,America/New_York,airport,OurAirports,Ocala,FL,12,FL,Florida,294478
393,481,Union Station,Ocala,United States,\N,\N,29.191944,-82.135833,69.0,-5.0,A,\N,station,User,Ocala,FL,12,FL,Florida,294478
394,8533,Grove City Airport,Grove City,United States,29D,\N,41.1460278,-80.16775,1371.0,-5.0,A,America/New_York,airport,User,Grove City,FL,12,FL,Florida,294478
395,8543,Germack Airport,Geneva,United States,7D9,\N,41.7778322,-80.9039797,820.0,-5.0,A,America/New_York,airport,User,Geneva,FL,12,FL,Florida,294478
396,243,Geneva Station,Geneva,United States,\N,\N,41.8817393,-88.3093928,725.0,-6.0,A,\N,station,User,Geneva,FL,12,FL,Florida,294478
397,8558,Lake Wales Municipal Airport,Lake Wales,United States,X07,\N,27.8938056,-81.6203889,127.0,-5.0,A,America/New_York,airport,User,Lake Wales,FL,12,FL,Florida,294478
398,8565,Clearwater Air Park,Clearwater,United States,CLW,KCLW,27.97669983,-82.75869751,71.0,-5.0,A,America/New_York,airport,OurAirports,Clearwater,FL,12,FL,Florida,294478
399,81,Pickens County Airport,Jasper,United States,\N,KJZP,34.45339966,-84.45739746,1535.0,-5.0,A,America/New_York,airport,OurAirports,Jasper,FL,12,FL,Florida,294478
400,4,Jasper County Airport-Bell Field,Jasper,United States,JAS,KJAS,30.88570023,-94.03489685,213.0,-5.0,A,\N,airport,OurAirports,Jasper,FL,12,FL,Florida,294478
401,12672,Marion County Brown Field,Jasper,United States,APT,KAPT,35.060699,-85.585297,641.0,-5.0,A,\N,airport,OurAirports,Jasper,FL,12,FL,Florida,294478
402,8688,Bagdad Airport,Bagdad,United States,E51,\N,34.5958528,-113.170195,4183.0,-7.0,A,America/Phoenix,airport,User,Bagdad,FL,12,FL,Florida,294478
403,8747,Luce County Airport,Newberry,United States,\N,KERY,46.31119919,-85.45729828,869.0,-5.0,A,America/New_York,airport,OurAirports,Newberry,FL,12,FL,Florida,294478
404,8777,Lake Placid Airport,Lake Placid,United States,LKP,KLKP,44.26449966,-73.9618988,1747.0,-5.0,A,America/New_York,airport,OurAirports,Lake Placid,FL,12,FL,Florida,294478
405,81,Cross City Airport,Cross City,United States,CTY,KCTY,29.63549995,-83.10479736,42.0,-5.0,A,America/New_York,airport,OurAirports,Cross City,FL,12,FL,Florida,294478
406,86,Fernandina Beach Municipal Airport,Fernandina Beach,United States,55J,\N,30.6118333,-81.4611944,16.0,-5.0,A,America/New_York,airport,User,Fernandina Beach,FL,12,FL,Florida,294478
407,8835,Leesburg Executive Airport,Leesburg,United States,\N,KJYO,39.077999,-77.557503,389.0,-5.0,A,America/New_York,airport,OurAirports,Leesburg,FL,12,FL,Florida,294478
408,145,Leesburg International Airport,Leesburg,United States,LEE,KLEE,28.82309914,-81.80870056,76.0,-5.0,A,\N,airport,OurAirports,Leesburg,FL,12,FL,Florida,294478
409,9143,Fort Lauderdale-Hollywood International Airport Station at Dania Beach,Dania Beach,United States,\N,\N,26.061933,-80.16565,9.0,-5.0,A,America/New_York,airport,User,Dania Beach,FL,12,FL,Florida,294478
410,9144,Deerfield Beach Station,Deerfield Beach,United States,\N,\N,26.316944,-80.122222,13.0,-5.0,A,America/New_York,station,User,Deerfield Beach,FL,12,FL,Florida,294478
411,9182,Crystal River Airport,Crystal River,United States,\N,KCGC,28.86730003,-82.57129669,9.0,-5.0,A,America/New_York,airport,OurAirports,Crystal River,FL,12,FL,Florida,294478
412,9197,Merritt Island Airport,Cocoa,United States,COI,\N,28.3416111,-80.6854722,6.0,-5.0,A,America/New_York,airport,User,Cocoa,FL,12,FL,Florida,294478
413,9199,Space Coast Regional Airport,Titusville,United States,TIX,KTIX,28.51479912,-80.79920197,34.0,-5.0,A,America/New_York,airport,OurAirports,Titusville,FL,12,FL,Florida,294478
414,9425,Kendal Glider Port,Kendall,United States,\N,\N,25.603889,-80.585556,10.0,-5.0,U,America/New_York,port,User,Kendall,FL,12,FL,Florida,294478
415,9564,Williamsburg Station,Williamsburg,United States,\N,\N,37.276531,-76.708589,82.0,-5.0,A,America/New_York,station,User,Williamsburg,FL,12,FL,Florida,294478
416,11649,Williamsburg Jamestown Airport,Williamsburg,United States,\N,KJGG,37.23920059,-76.7161026,49.0,-5.0,A,\N,airport,OurAirports,Williamsburg,FL,12,FL,Florida,294478
417,93,Raleigh Amtrak Station,Raleigh,United States,\N,\N,35.7751,-78.6441,300.0,-5.0,A,America/New_York,station,User,Raleigh,FL,12,FL,Florida,294478
418,97,Arcadia Municipal Airport,Arcadia,United States,X06,\N,27.1174,-81.5023,63.0,-5.0,A,America/New_York,airport,User,Arcadia,FL,12,FL,Florida,294478
419,9812,Massey Ranch Airpark Airport,Edgewater,United States,X50,\N,28.5874,-80.5549,10.0,-5.0,A,America/New_York,airport,User,Edgewater,FL,12,FL,Florida,294478
420,9813,North Palm Beach County General Aviation Airport,Palm Beach Gardens,United States,F45,\N,26.5076,-80.1334,22.0,-5.0,A,America/New_York,airport,User,Palm Beach Gardens,FL,12,FL,Florida,294478
421,9814,Airglades Airport,Clewiston,United States,2IS,\N,26.4411,-81.0306,20.0,-5.0,A,America/New_York,airport,User,Clewiston,FL,12,FL,Florida,294478
422,9847,Conway Horry County Airport,Conway,United States,\N,KHYW,33.82849884,-79.12220001,35.0,-5.0,A,America/New_York,airport,OurAirports,Conway,FL,12,FL,Florida,294478
423,9877,Metrorail Transfer Station,Hialeah,United States,\N,\N,25.846394,-80.259617,50.0,-5.0,A,America/New_York,station,User,Hialeah,FL,12,FL,Florida,294478
424,157,Hialeah Market Station,Hialeah,United States,\N,\N,25.811239,-80.258703,10.0,-5.0,A,\N,station,User,Hialeah,FL,12,FL,Florida,294478
425,9878,Opa-locka Station,Opa-locka,United States,\N,\N,25.900036,-80.252694,50.0,-5.0,A,America/New_York,station,User,Opa-locka,FL,12,FL,Florida,294478
426,9879,Golden Glades Station,Golden Glades,United States,\N,\N,25.92155,-80.216917,50.0,-5.0,A,America/New_York,station,User,Golden Glades,FL,12,FL,Florida,294478
427,9942,Henderson Field,Wallace,United States,\N,KACZ,34.71789932,-78.00360107,39.0,-5.0,A,\N,airport,OurAirports,Wallace,FL,12,FL,Florida,294478
428,9951,Hudson Amtrak Station,Hudson,United States,\N,\N,42.253891,-73.797729,420.0,-5.0,A,\N,station,User,Hudson,FL,12,FL,Florida,294478
429,487,Boynton Beach Station,Boynton Beach,United States,\N,\N,26.553865,-80.070644,23.0,-5.0,A,\N,station,User,Boynton Beach,FL,12,FL,Florida,294478
430,642,Mangonia Park Station,Mangonia Park,United States,\N,\N,26.758383,-80.076459,20.0,-5.0,A,\N,station,User,Mangonia Park,FL,12,FL,Florida,294478
431,643,Lake Worth Station,Lake Worth,United States,\N,\N,26.616131,-80.069135,15.0,-5.0,A,\N,station,User,Lake Worth,FL,12,FL,Florida,294478
432,644,Delray Beach Station,Delray Beach,United States,\N,\N,26.454215,-80.090934,20.0,-5.0,A,\N,station,User,Delray Beach,FL,12,FL,Florida,294478
433,983,Glencoe Station,Glencoe,United States,\N,\N,42.1355596,-87.7602443,690.0,-6.0,A,\N,station,User,Glencoe,FL,12,FL,Florida,294478
434,984,Braeside Station,Highland Park,United States,\N,\N,42.1527818,-87.7746887,584.0,-6.0,A,\N,station,User,Highland Park,FL,12,FL,Florida,294478
435,985,Ravinia Station,Highland Park,United States,\N,\N,42.165004,-87.7849665,584.0,-6.0,A,\N,station,User,Highland Park,FL,12,FL,Florida,294478
436,986,Highland Park Station,Highland Park,United States,\N,\N,42.1832298,-87.7998782,584.0,-6.0,A,\N,station,User,Highland Park,FL,12,FL,Florida,294478
437,107,Ravinia Park Station,Highland Park,United States,\N,\N,42.1580596,-87.7791331,584.0,-6.0,A,\N,station,User,Highland Park,FL,12,FL,Florida,294478
438,11429,Inwood Station,Inwood,United States,\N,\N,40.6122841,-73.7463687,33.0,-5.0,A,\N,station,User,Inwood,FL,12,FL,Florida,294478
439,11697,Rushmore Heliport,Keystone,United States,\N,\N,43.883,-103.417,4343.0,7.0,A,\N,airport,User,Keystone,FL,12,FL,Florida,294478
440,116,New Smyrna Beach Municipal Airport,New Smyrna Beach,United States,\N,KEVB,29.0557003,-80.94889832,10.0,-5.0,A,\N,airport,OurAirports,New Smyrna Beach,FL,12,FL,Florida,294478
441,3416,Orlando Executive Airport,Orlando,United States,ORL,KORL,28.5455,-81.332901,113.0,-5.0,A,America/New_York,airport,OurAirports,Orlando,OK,40,OK,Oklahoma,1102857
442,3878,Orlando International Airport,Orlando,United States,MCO,KMCO,28.42939949,-81.30899811,96.0,-5.0,A,America/New_York,airport,OurAirports,Orlando,OK,40,OK,Oklahoma,1102857
443,82,Amtrak Station,Orlando,United States,\N,\N,28.5259,-81.3813,82.0,-5.0,A,America/New_York,station,User,Orlando,OK,40,OK,Oklahoma,1102857
444,198,Air Orlando Heliport,Orlando,United States,\N,2FD7,28.43560028,-81.47309875,120.0,-5.0,A,\N,airport,OurAirports,Orlando,OK,40,OK,Oklahoma,1102857
445,34,Ponca City Regional Airport,Ponca City,United States,PNC,KPNC,36.73199844,-97.09980011,1008.0,-6.0,A,America/Chicago,airport,OurAirports,Ponca City,OK,40,OK,Oklahoma,1102857
446,3449,Travis Air Force Base,Fairfield,United States,SUU,KSUU,38.26269913,-121.927002,62.0,-8.0,A,America/Los_Angeles,airport,OurAirports,Fairfield,OK,40,OK,Oklahoma,1102857
447,9577,Fairfield Metro Station,Fairfield,United States,\N,\N,41.161,-73.234336,59.0,-5.0,A,America/New_York,station,User,Fairfield,OK,40,OK,Oklahoma,1102857
448,9578,Fairfield Station,Fairfield,United States,\N,\N,41.143077,-73.257742,59.0,-5.0,A,America/New_York,station,User,Fairfield,OK,40,OK,Oklahoma,1102857
449,3453,Metropolitan Oakland International Airport,Oakland,United States,OAK,KOAK,37.721298,-122.221001,9.0,-8.0,A,America/Los_Angeles,airport,OurAirports,Oakland,OK,40,OK,Oklahoma,1102857
450,94,Oakland Jack London Square Station,Oakland,United States,\N,\N,37.7935,-122.2719,13.0,-8.0,A,America/Los_Angeles,station,User,Oakland,OK,40,OK,Oklahoma,1102857
451,3474,Bisbee Douglas International Airport,Douglas,United States,DUG,KDUG,31.46899986,-109.6039963,4154.0,-7.0,A,America/Phoenix,airport,OurAirports,Douglas,OK,40,OK,Oklahoma,1102857
452,7588,Douglas Municipal Airport,Douglas,United States,DGL,KDGL,31.34259987,-109.5059967,4173.0,-7.0,N,America/Phoenix,airport,OurAirports,Douglas,OK,40,OK,Oklahoma,1102857
453,8273,Douglas Municipal Airport,Douglas,United States,\N,KDQH,31.47669983,-82.86049652,257.0,-5.0,A,America/New_York,airport,OurAirports,Douglas,OK,40,OK,Oklahoma,1102857
454,3486,Cleveland Hopkins International Airport,Cleveland,United States,CLE,KCLE,41.4117012,-81.84980011,791.0,-5.0,A,America/New_York,airport,OurAirports,Cleveland,OK,40,OK,Oklahoma,1102857
455,8544,Burke Lakefront Airport,Cleveland,United States,BKL,KBKL,41.51750183,-81.6832962,583.0,-5.0,A,America/New_York,airport,OurAirports,Cleveland,OK,40,OK,Oklahoma,1102857
456,8793,Hardwick Field,Cleveland,United States,HDI,KHDI,35.2201004,-84.83239746,874.0,-5.0,A,America/New_York,airport,OurAirports,Cleveland,OK,40,OK,Oklahoma,1102857
457,9445,Cleveland Greyhound Station,Cleveland,United States,\N,\N,41.5034,-81.6822,679.0,-5.0,A,America/New_York,station,User,Cleveland,OK,40,OK,Oklahoma,1102857
458,9549,Cleveland Lakefront Station,Cleveland,United States,\N,\N,41.505787,-81.696172,650.0,-5.0,A,America/New_York,station,User,Cleveland,OK,40,OK,Oklahoma,1102857
459,3487,Dover Air Force Base,Dover,United States,DOV,KDOV,39.12950134,-75.46600342,24.0,-5.0,A,America/New_York,airport,OurAirports,Dover,OK,40,OK,Oklahoma,1102857
460,34,Helena Regional Airport,Helena,United States,HLN,KHLN,46.60680008,-111.9830017,3877.0,-7.0,A,America/Denver,airport,OurAirports,Helena,OK,40,OK,Oklahoma,1102857
461,35,Vance Air Force Base,Enid,United States,END,KEND,36.33919907,-97.91649628,1307.0,-6.0,A,America/Chicago,airport,OurAirports,Enid,OK,40,OK,Oklahoma,1102857
462,35,Ronald Reagan Washington National Airport,Washington,United States,DCA,KDCA,38.8521,-77.037697,15.0,-5.0,A,America/New_York,airport,OurAirports,Washington,OK,40,OK,Oklahoma,1102857
463,3714,Washington Dulles International Airport,Washington,United States,IAD,KIAD,38.94449997,-77.45580292,312.0,-5.0,A,America/New_York,airport,OurAirports,Washington,OK,40,OK,Oklahoma,1102857
464,68,Washington Union Station,Washington,United States,ZWU,\N,38.89746,-77.00643,76.0,-5.0,A,America/New_York,station,User,Washington,OK,40,OK,Oklahoma,1102857
465,8597,All Airports,Washington,United States,WAS,\N,38.889444,-77.035278,25.0,-5.0,A,America/New_York,airport,User,Washington,OK,40,OK,Oklahoma,1102857
466,9772,Warren Field,Washington,United States,OCW,KOCW,35.57049942,-77.04979706,38.0,-5.0,A,America/New_York,airport,OurAirports,Washington,OK,40,OK,Oklahoma,1102857
467,395,Tysons Corner Station,Washington,United States,\N,\N,38.92063,-77.22193,427.0,-5.0,A,\N,station,User,Washington,OK,40,OK,Oklahoma,1102857
468,3525,Tinker Air Force Base,Oklahoma City,United States,TIK,KTIK,35.41469955,-97.38659668,1291.0,-6.0,A,America/Chicago,airport,OurAirports,Oklahoma City,OK,40,OK,Oklahoma,1102857
469,3863,Will Rogers World Airport,Oklahoma City,United States,OKC,KOKC,35.39310074,-97.60070038,1295.0,-6.0,A,America/Chicago,airport,OurAirports,Oklahoma City,OK,40,OK,Oklahoma,1102857
470,9781,Wiley Post Airport,Oklahoma City,United States,PWA,KPWA,35.53419876,-97.64710236,1300.0,-6.0,A,America/Chicago,airport,OurAirports,Oklahoma City,OK,40,OK,Oklahoma,1102857
471,3534,Muskogee-Davis Regional Airport,Muskogee,United States,\N,KMKO,35.656502,-95.366699,611.0,-6.0,A,America/Chicago,airport,OurAirports,Muskogee,OK,40,OK,Oklahoma,1102857
472,3547,Hickory Regional Airport,Hickory,United States,HKY,KHKY,35.74110031,-81.38950348,1190.0,-5.0,A,America/New_York,airport,OurAirports,Hickory,OK,40,OK,Oklahoma,1102857
473,3563,Pensacola Naval Air Station/Forrest Sherman Field,Pensacola,United States,NPA,KNPA,30.35269928,-87.31860352,28.0,-6.0,A,America/Chicago,airport,OurAirports,Pensacola,OK,40,OK,Oklahoma,1102857
474,3564,Pensacola Regional Airport,Pensacola,United States,PNS,KPNS,30.47340012,-87.18659973,121.0,-6.0,A,America/Chicago,airport,OurAirports,Pensacola,OK,40,OK,Oklahoma,1102857
475,3576,Miami International Airport,Miami,United States,MIA,KMIA,25.79319954,-80.29060364,8.0,-5.0,A,America/New_York,airport,OurAirports,Miami,OK,40,OK,Oklahoma,1102857
476,3721,Dade Collier Training and Transition Airport,Miami,United States,TNT,KTNT,25.86179924,-80.89700317,13.0,-5.0,A,America/New_York,airport,OurAirports,Miami,OK,40,OK,Oklahoma,1102857
477,3791,Opa-locka Executive Airport,Miami,United States,OPF,KOPF,25.907,-80.278397,8.0,-5.0,A,America/New_York,airport,OurAirports,Miami,OK,40,OK,Oklahoma,1102857
478,7923,Miami Seaplane Base,Miami,United States,MPB,\N,25.7783,-80.1703,0.0,-5.0,A,America/New_York,airport,User,Miami,OK,40,OK,Oklahoma,1102857
479,3578,Lovell Field,Chattanooga,United States,CHA,KCHA,35.03530121,-85.20379639,683.0,-5.0,A,America/New_York,airport,OurAirports,Chattanooga,OK,40,OK,Oklahoma,1102857
480,3579,Igor I Sikorsky Memorial Airport,Stratford,United States,BDR,KBDR,41.16350174,-73.12619781,9.0,-5.0,A,America/New_York,airport,OurAirports,Stratford,OK,40,OK,Oklahoma,1102857
481,9574,Stratford Station,Stratford,United States,\N,\N,41.194286,-73.131566,49.0,-5.0,A,America/New_York,station,User,Stratford,OK,40,OK,Oklahoma,1102857
482,3635,Altus Air Force Base,Altus,United States,LTS,KLTS,34.667099,-99.26670074,1382.0,-6.0,A,America/Chicago,airport,OurAirports,Altus,OK,40,OK,Oklahoma,1102857
483,3644,Bob Hope Airport,Burbank,United States,BUR,KBUR,34.20069885,-118.3590012,778.0,-8.0,A,America/Los_Angeles,airport,OurAirports,Burbank,OK,40,OK,Oklahoma,1102857
484,3654,Ardmore Municipal Airport,Ardmore,United States,ADM,KADM,34.30301,-97.0196342,777.0,-6.0,A,America/Chicago,airport,OurAirports,Ardmore,OK,40,OK,Oklahoma,1102857
485,7319,Ardmore Amtrak Station,Ardmore,United States,\N,\N,40.01,-75.29,360.0,-5.0,A,America/New_York,station,User,Ardmore,OK,40,OK,Oklahoma,1102857
486,3666,Dobbins Air Reserve Base,Marietta,United States,MGE,KMGE,33.91540146,-84.51629639,1068.0,-5.0,A,America/New_York,airport,OurAirports,Marietta,OK,40,OK,Oklahoma,1102857
487,3678,St Louis Lambert International Airport,St. Louis,United States,STL,KSTL,38.748697,-90.370003,618.0,-6.0,A,America/Chicago,airport,OurAirports,St. Louis,OK,40,OK,Oklahoma,1102857
488,3711,Burlington International Airport,Burlington,United States,BTV,KBTV,44.47190094,-73.15329742,335.0,-5.0,A,America/New_York,airport,OurAirports,Burlington,OK,40,OK,Oklahoma,1102857
489,5726,Southeast Iowa Regional Airport,Burlington,United States,BRL,KBRL,40.78319931,-91.12550354,698.0,-6.0,A,America/Chicago,airport,OurAirports,Burlington,OK,40,OK,Oklahoma,1102857
490,7859,Burlington Alamance Regional Airport,Burlington,United States,\N,KBUY,36.04850006,-79.47489929,617.0,-5.0,A,America/New_York,airport,OurAirports,Burlington,OK,40,OK,Oklahoma,1102857
491,8528,Burlington Municipal Airport,Burlington,United States,\N,KBUU,42.69070053,-88.30460358,779.0,-6.0,A,America/Chicago,airport,OurAirports,Burlington,OK,40,OK,Oklahoma,1102857
492,3732,Monroe Regional Airport,Monroe,United States,MLU,KMLU,32.51089859,-92.03769684,79.0,-6.0,A,America/Chicago,airport,OurAirports,Monroe,OK,40,OK,Oklahoma,1102857
493,8495,Monroe Municipal Airport,Monroe,United States,\N,KEFT,42.61489868,-89.5904007,1086.0,-6.0,A,America/Chicago,airport,OurAirports,Monroe,OK,40,OK,Oklahoma,1102857
494,3765,Chandler Municipal Airport,Chandler,United States,\N,KCHD,33.2691,-111.810997,1243.0,-7.0,A,America/Phoenix,airport,OurAirports,Chandler,OK,40,OK,Oklahoma,1102857
495,3783,Moffett Federal Airfield,Mountain View,United States,NUQ,KNUQ,37.4161,-122.049004,32.0,-8.0,A,America/Los_Angeles,airport,OurAirports,Mountain View,OK,40,OK,Oklahoma,1102857
496,9441,Downtown Mountain View Station,Mountain View,United States,\N,\N,37.3943934,-122.075872,15.0,-8.0,A,America/Los_Angeles,station,User,Mountain View,OK,40,OK,Oklahoma,1102857
497,9984,San Antonio Station,Mountain View,United States,\N,\N,37.407157,-122.107231,40.0,-8.0,A,\N,station,User,Mountain View,OK,40,OK,Oklahoma,1102857
498,11587,San Antonio Caltrain Station,Mountain View,United States,\N,\N,37.407222,-122.106944,45.0,-8.0,A,\N,station,User,Mountain View,OK,40,OK,Oklahoma,1102857
499,34,Cheyenne Regional Jerry Olson Field,Cheyenne,United States,CYS,KCYS,41.15570068,-104.8119965,6159.0,-7.0,A,America/Denver,airport,OurAirports,Cheyenne,OK,40,OK,Oklahoma,1102857
500,38,Buffalo Niagara International Airport,Buffalo,United States,BUF,KBUF,42.94049835,-78.73220062,728.0,-5.0,A,America/New_York,airport,OurAirports,Buffalo,OK,40,OK,Oklahoma,1102857
501,81,Buffalo Exchange Street Station,Buffalo,United States,\N,\N,42.8783,-78.8738,600.0,-5.0,A,America/New_York,station,User,Buffalo,OK,40,OK,Oklahoma,1102857
502,11329,Buffalo-Exchange Street Station,Buffalo,United States,ZXS,\N,42.8783,-78.8738,580.0,-5.0,A,\N,station,User,Buffalo,OK,40,OK,Oklahoma,1102857
503,3847,Meridian Naval Air Station,Meridian,United States,\N,KNMM,32.55210114,-88.55560303,316.0,-6.0,A,America/Chicago,airport,OurAirports,Meridian,OK,40,OK,Oklahoma,1102857
504,4335,Key Field,Meridian,United States,MEI,KMEI,32.33259964,-88.75189972,297.0,-6.0,A,America/Chicago,airport,OurAirports,Meridian,OK,40,OK,Oklahoma,1102857
505,38,Hobart Regional Airport,Hobart,United States,HBR,KHBR,34.991317,-99.051313,1563.0,-6.0,A,America/Chicago,airport,OurAirports,Hobart,OK,40,OK,Oklahoma,1102857
506,3855,Tulsa International Airport,Tulsa,United States,TUL,KTUL,36.19839859,-95.88809967,677.0,-6.0,A,America/Chicago,airport,OurAirports,Tulsa,OK,40,OK,Oklahoma,1102857
507,7849,Richard Lloyd Jones Jr Airport,Tulsa,United States,RVS,KRVS,36.03960037,-95.98459625,638.0,-6.0,A,America/Chicago,airport,OurAirports,Tulsa,OK,40,OK,Oklahoma,1102857
508,3864,Albany International Airport,Albany,United States,ALB,KALB,42.74829865,-73.80169678,285.0,-5.0,A,America/New_York,airport,OurAirports,Albany,OK,40,OK,Oklahoma,1102857
509,5715,Southwest Georgia Regional Airport,Albany,United States,ABY,KABY,31.53549957,-84.19450378,197.0,-5.0,A,America/New_York,airport,OurAirports,Albany,OK,40,OK,Oklahoma,1102857
510,80,Rensselaer Rail Station,Albany,United States,\N,\N,42.641389,-73.741111,324.0,-5.0,A,America/New_York,station,User,Albany,OK,40,OK,Oklahoma,1102857
511,21,Billings Logan International Airport,Billings,United States,BIL,KBIL,45.80770111,-108.5429993,3652.0,-7.0,A,America/Denver,airport,OurAirports,Billings,OK,40,OK,Oklahoma,1102857
512,46,General Wayne A. Downing Peoria International Airport,Peoria,United States,PIA,KPIA,40.66419983,-89.69329834,660.0,-6.0,A,America/Chicago,airport,OurAirports,Peoria,OK,40,OK,Oklahoma,1102857
513,41,Rogue Valley International Medford Airport,Medford,United States,MFR,KMFR,42.37419891,-122.8730011,1335.0,-8.0,A,America/Los_Angeles,airport,OurAirports,Medford,OK,40,OK,Oklahoma,1102857
514,4229,Stephens County Airport,Breckenridge,United States,BKD,KBKD,32.71900177,-98.89099884,1284.0,-6.0,A,America/Chicago,airport,OurAirports,Breckenridge,OK,40,OK,Oklahoma,1102857
515,42,Draughon Miller Central Texas Regional Airport,Temple,United States,TPL,KTPL,31.15250015,-97.40779877,682.0,-6.0,A,America/Chicago,airport,OurAirports,Temple,OK,40,OK,Oklahoma,1102857
516,4256,Lawton Fort Sill Regional Airport,Lawton,United States,LAW,KLAW,34.56769943,-98.41660309,1110.0,-6.0,A,America/Chicago,airport,OurAirports,Lawton,OK,40,OK,Oklahoma,1102857
517,4292,Hector International Airport,Fargo,United States,FAR,KFAR,46.92070007,-96.81580353,902.0,-6.0,A,America/Chicago,airport,OurAirports,Fargo,OK,40,OK,Oklahoma,1102857
518,4342,Lamar Municipal Airport,Lamar,United States,LAA,KLAA,38.06969833,-102.6880035,3706.0,-7.0,A,America/Denver,airport,OurAirports,Lamar,OK,40,OK,Oklahoma,1102857
519,9966,Lamar Station,Lamar,United States,\N,\N,38.0897011,-102.6183855,3625.0,-7.0,A,\N,station,User,Lamar,OK,40,OK,Oklahoma,1102857
520,5749,Lebanon Municipal Airport,Lebanon,United States,LEB,KLEB,43.62609863,-72.30419922,603.0,-5.0,A,America/New_York,airport,OurAirports,Lebanon,OK,40,OK,Oklahoma,1102857
521,5771,Salina Municipal Airport,Salina,United States,SLN,KSLN,38.79100037,-97.65219879,1288.0,-6.0,A,America/Chicago,airport,OurAirports,Salina,OK,40,OK,Oklahoma,1102857
522,5773,Tupelo Regional Airport,Tupelo,United States,TUP,KTUP,34.26810074,-88.76989746,346.0,-6.0,A,America/Chicago,airport,OurAirports,Tupelo,OK,40,OK,Oklahoma,1102857
523,6446,Spencer Municipal Airport,Spencer,United States,SPW,KSPW,43.16550064,-95.20279694,1339.0,-6.0,A,America/Chicago,airport,OurAirports,Spencer,OK,40,OK,Oklahoma,1102857
524,6861,Macomb Municipal Airport,Macomb,United States,MQB,\N,40.5200833,-90.6523889,707.0,-6.0,U,America/Chicago,airport,User,Macomb,OK,40,OK,Oklahoma,1102857
525,6941,Byron Airport,Byron,United States,\N,\N,37.8284,-121.626,79.0,-8.0,A,America/Los_Angeles,airport,User,Byron,OK,40,OK,Oklahoma,1102857
526,97,Marshall Don Hunter Sr Airport,Marshall,United States,MLL,PADM,61.86429977,-162.026001,103.0,-9.0,A,America/Anchorage,airport,OurAirports,Marshall,OK,40,OK,Oklahoma,1102857
527,8559,Brooks Field,Marshall,United States,\N,KRMY,42.25120163,-84.95549774,941.0,-5.0,A,America/New_York,airport,OurAirports,Marshall,OK,40,OK,Oklahoma,1102857
528,7115,Beaver Airport,Beaver,United States,WBQ,PAWB,66.36219788,-147.4069977,359.0,-9.0,A,America/Anchorage,airport,OurAirports,Beaver,OK,40,OK,Oklahoma,1102857
529,7145,Hollis Seaplane Base,Hollis,United States,HYL,\N,55.481667,-132.646111,0.0,-9.0,A,America/Anchorage,airport,User,Hollis,OK,40,OK,Oklahoma,1102857
530,72,Wainwright Airport,Wainwright,United States,AIN,PAWI,70.63800049,-159.9949951,41.0,-9.0,A,America/Anchorage,airport,OurAirports,Wainwright,OK,40,OK,Oklahoma,1102857
531,7365,Westport Amtrak Station,Westport,United States,\N,\N,44.1871,-73.4519,1.0,-5.0,A,America/New_York,station,User,Westport,OK,40,OK,Oklahoma,1102857
532,7656,Witham Field,Stuart,United States,SUA,KSUA,27.18169975,-80.22109985,16.0,-5.0,A,America/New_York,airport,OurAirports,Stuart,OK,40,OK,Oklahoma,1102857
533,78,Halliburton Field,Duncan,United States,DUC,KDUC,34.47090149,-97.9598999,1114.0,-6.0,A,America/Chicago,airport,OurAirports,Duncan,OK,40,OK,Oklahoma,1102857
534,7985,Sterling Municipal Airport,Sterling,United States,STK,KSTK,40.61529922,-103.2649994,4040.0,-7.0,A,America/Denver,airport,OurAirports,Sterling,OK,40,OK,Oklahoma,1102857
535,85,Spring Hill Airport,Sterling,United States,70N,\N,41.3473569,-75.4158972,1729.0,-5.0,A,America/New_York,airport,User,Sterling,OK,40,OK,Oklahoma,1102857
536,64,Perry-Foley Airport,Perry,United States,40J,\N,30.0692778,-83.5805833,44.0,-5.0,A,America/New_York,airport,User,Perry,OK,40,OK,Oklahoma,1102857
537,9784,Perry Municipal Airport,Perry,United States,\N,KF22,36.38560104,-97.27719879,1002.0,-6.0,A,America/Chicago,airport,OurAirports,Perry,OK,40,OK,Oklahoma,1102857
538,132,Perry Houston County Airport,Perry,United States,\N,KPXE,32.51060104,-83.76730347,418.0,-4.0,A,\N,airport,OurAirports,Perry,OK,40,OK,Oklahoma,1102857
539,8251,Jackson County Airport,Jefferson,United States,19A,\N,34.1758638,-83.5615972,951.0,-5.0,U,America/New_York,airport,User,Jefferson,OK,40,OK,Oklahoma,1102857
540,87,Covington Municipal Airport,Covington,United States,9A1,\N,33.6323083,-83.8474472,809.0,-5.0,A,America/New_York,airport,User,Covington,OK,40,OK,Oklahoma,1102857
541,89,Cherokee County Airport,Canton,United States,\N,KCNI,34.3122175,-84.4221556,1219.0,-5.0,A,America/New_York,airport,User,Canton,OK,40,OK,Oklahoma,1102857
542,85,Cherokee County Airport,Canton,United States,47A,\N,34.3122175,-84.4221556,1219.0,-5.0,A,America/New_York,airport,User,Canton,OK,40,OK,Oklahoma,1102857
543,8321,Mallards Landing Airport,Locust Grove,United States,\N,GA04,33.36569977,-84.16519928,837.0,-5.0,A,America/New_York,airport,OurAirports,Locust Grove,OK,40,OK,Oklahoma,1102857
544,8494,Price County Airport,Phillips,United States,\N,KPBH,45.70899963,-90.40249634,1497.0,-6.0,A,America/Chicago,airport,OurAirports,Phillips,OK,40,OK,Oklahoma,1102857
545,8536,Ashland County Airport,Ashland,United States,3G4,\N,40.9029722,-82.2556389,1206.0,-5.0,A,America/New_York,airport,User,Ashland,OK,40,OK,Oklahoma,1102857
546,9566,Ashland Virgina Station,Ashland,United States,\N,\N,37.759596,-77.481304,213.0,-5.0,A,America/New_York,station,User,Ashland,OK,40,OK,Oklahoma,1102857
547,88,Ramona Airport,Ramona,United States,\N,KRNM,33.0392,-116.915001,1395.0,-8.0,A,America/Los_Angeles,airport,OurAirports,Ramona,OK,40,OK,Oklahoma,1102857
548,8655,Clinton Municipal Airport,Clinton,United States,CWI,KCWI,41.83110046,-90.32910156,708.0,-6.0,A,America/Chicago,airport,OurAirports,Clinton,OK,40,OK,Oklahoma,1102857
549,9779,Clinton Sherman Airport,Clinton,United States,CSM,KCSM,35.33980179,-99.20050049,1922.0,-6.0,A,America/Chicago,airport,OurAirports,Clinton,OK,40,OK,Oklahoma,1102857
550,8784,Lima Allen County Airport,Lima,United States,AOH,KAOH,40.706902,-84.026703,975.0,-5.0,A,America/New_York,airport,OurAirports,Lima,OK,40,OK,Oklahoma,1102857
551,9432,Buffalo-Depew Station,Depew,United States,\N,\N,42.9074,-78.7266,676.0,-5.0,A,America/New_York,station,User,Depew,OK,40,OK,Oklahoma,1102857
552,9482,Summit NJT Station,Summit,United States,\N,SMMT,40.716556,-74.35775,374.0,-5.0,A,America/New_York,station,User,Summit,OK,40,OK,Oklahoma,1102857
553,197,The Farm Airport,Summit,United States,\N,24SC,33.93579865,-81.42970276,580.0,-4.0,A,\N,airport,OurAirports,Summit,OK,40,OK,Oklahoma,1102857
554,9545,Robert S Kerr Airport,Poteau,United States,\N,KRKR,35.02159882,-94.62129974,451.0,-6.0,A,America/Chicago,airport,OurAirports,Poteau,OK,40,OK,Oklahoma,1102857
555,9556,Paoli Station,Paoli,United States,\N,\N,40.042754,-75.48376,509.0,-5.0,A,America/New_York,station,User,Paoli,OK,40,OK,Oklahoma,1102857
556,95,Tyrone Station,Tyrone,United States,\N,\N,40.667749,-78.240573,896.0,-5.0,A,America/New_York,station,User,Tyrone,OK,40,OK,Oklahoma,1102857
557,9572,Bridgeport Ferry Dock,Bridgeport,United States,\N,\N,41.175188,-73.185591,12.0,-5.0,A,America/New_York,port,User,Bridgeport,OK,40,OK,Oklahoma,1102857
558,9573,Bridgeport Station,Bridgeport,United States,\N,\N,41.178006,-73.187539,3.0,-5.0,A,America/New_York,station,User,Bridgeport,OK,40,OK,Oklahoma,1102857
559,9754,Causey Airport,Liberty,United States,\N,K2A5,35.91180038,-79.61759949,723.0,-5.0,A,America/New_York,airport,OurAirports,Liberty,OK,40,OK,Oklahoma,1102857
560,9776,Stillwater Regional Airport,Stillwater,United States,SWO,KSWO,36.16120148,-97.08570099,1000.0,-6.0,A,America/Chicago,airport,OurAirports,Stillwater,OK,40,OK,Oklahoma,1102857
561,9777,Okmulgee Regional Airport,Okmulgee,United States,OKM,KOKM,35.66809845,-95.94869995,720.0,-6.0,A,America/Chicago,airport,OurAirports,Okmulgee,OK,40,OK,Oklahoma,1102857
562,9778,Cushing Municipal Airport,Cushing,United States,CUH,KCUH,35.94990158,-96.77310181,916.0,-6.0,A,America/Chicago,airport,OurAirports,Cushing,OK,40,OK,Oklahoma,1102857
563,9787,Ada Regional Airport,Ada,United States,ADT,KADH,34.804298,-96.671303,1016.0,-6.0,A,America/Chicago,airport,OurAirports,Ada,OK,40,OK,Oklahoma,1102857
564,97,Arcadia Municipal Airport,Arcadia,United States,X06,\N,27.1174,-81.5023,63.0,-5.0,A,America/New_York,airport,User,Arcadia,OK,40,OK,Oklahoma,1102857
565,048,Chelsea Station,Chelsea,United States,\N,\N,42.395661,-71.034826,50.0,-5.0,A,\N,station,User,Chelsea,OK,40,OK,Oklahoma,1102857
566,3,Sallisaw Municipal Airport,Sallisaw,United States,\N,KJSV,35.4382019,-94.80280304,527.0,-5.0,A,\N,airport,OurAirports,Sallisaw,OK,40,OK,Oklahoma,1102857
567,129,Grove Municipal Airport,Grove,United States,\N,KGMJ,36.60680008,-94.73860168,831.0,-5.0,A,\N,airport,OurAirports,Grove,OK,40,OK,Oklahoma,1102857
568,588,Albion Amtrak Station,Albion,United States,\N,\N,42.247222,-84.756111,946.0,-5.0,A,\N,station,User,Albion,OK,40,OK,Oklahoma,1102857
569,983,Glencoe Station,Glencoe,United States,\N,\N,42.1355596,-87.7602443,690.0,-6.0,A,\N,station,User,Glencoe,OK,40,OK,Oklahoma,1102857
570,994,Zion Station,Zion,United States,\N,\N,42.4491706,-87.8202443,592.0,-6.0,A,\N,station,User,Zion,OK,40,OK,Oklahoma,1102857
571,174,Jim Kelly Field,Lexington,United States,LXN,KLXN,40.79100037,-99.77729797,2413.0,-5.0,A,\N,airport,OurAirports,Lexington,OK,40,OK,Oklahoma,1102857
572,13124,Davidson County Airport,Lexington,United States,\N,KEXX,35.78110123,-80.30380249,733.0,-4.0,A,\N,airport,OurAirports,Lexington,OK,40,OK,Oklahoma,1102857
573,184,Guymon Municipal Airport,Guymon,United States,GUY,KGUY,36.68510056,-101.5080032,3123.0,-5.0,A,\N,airport,OurAirports,Guymon,OK,40,OK,Oklahoma,1102857
574,11584,University Airport,Davis,United States,\N,\N,38.531137,-121.787423,62.0,-8.0,A,\N,airport,User,Davis,OK,40,OK,Oklahoma,1102857
575,13126,Windwood Fly-In Resort Airport,Davis,United States,\N,WV62,39.05509949,-79.43139648,3210.0,-4.0,A,\N,airport,OurAirports,Davis,OK,40,OK,Oklahoma,1102857
576,11648,Hollister Municipal Airport,Hollister,United States,HLI,KCVH,36.8932991,-121.4100037,230.0,-8.0,A,\N,airport,OurAirports,Hollister,OK,40,OK,Oklahoma,1102857
577,11723,Hillsdale Station,Hillsdale,United States,\N,\N,37.537778,-122.2975,31.0,-8.0,A,\N,station,User,Hillsdale,OK,40,OK,Oklahoma,1102857
578,13155,William R. Pogue Municipal Airport,Sand Springs,United States,\N,KOWP,36.1753006,-96.15180206,892.0,-5.0,A,\N,airport,OurAirports,Sand Springs,OK,40,OK,Oklahoma,1102857
579,3425,Laurence G Hanscom Field,Bedford,United States,BED,KBED,42.47000122,-71.28900146,133.0,-5.0,A,America/New_York,airport,OurAirports,Bedford,TX,48,TX,Texas,1779801
580,83,Bedford County Airport,Bedford,United States,\N,KHMZ,40.08530045,-78.5121994,1162.0,-5.0,A,America/New_York,airport,OurAirports,Bedford,TX,48,TX,Texas,1779801
581,3447,Trenton Mercer Airport,Trenton,United States,TTN,KTTN,40.27669907,-74.81349945,213.0,-5.0,A,America/New_York,airport,OurAirports,Trenton,TX,48,TX,Texas,1779801
582,7366,Trenton Amtrak Station,Trenton,United States,\N,\N,40.21889,-74.75417,1.0,-5.0,A,America/New_York,station,User,Trenton,TX,48,TX,Texas,1779801
583,8547,Trenton-Robbinsville Airport,Trenton,United States,N87,\N,40.2139444,-74.6017778,118.0,-5.0,A,America/New_York,airport,User,Trenton,TX,48,TX,Texas,1779801
584,3449,Travis Air Force Base,Fairfield,United States,SUU,KSUU,38.26269913,-121.927002,62.0,-8.0,A,America/Los_Angeles,airport,OurAirports,Fairfield,TX,48,TX,Texas,1779801
585,9577,Fairfield Metro Station,Fairfield,United States,\N,\N,41.161,-73.234336,59.0,-5.0,A,America/New_York,station,User,Fairfield,TX,48,TX,Texas,1779801
586,9578,Fairfield Station,Fairfield,United States,\N,\N,41.143077,-73.257742,59.0,-5.0,A,America/New_York,station,User,Fairfield,TX,48,TX,Texas,1779801
587,3454,Eppley Airfield,Omaha,United States,OMA,KOMA,41.3032,-95.894096,984.0,-6.0,A,America/Chicago,airport,OurAirports,Omaha,TX,48,TX,Texas,1779801
588,3836,Offutt Air Force Base,Omaha,United States,OFF,KOFF,41.11830139,-95.91249847,1052.0,-6.0,A,America/Chicago,airport,OurAirports,Omaha,TX,48,TX,Texas,1779801
589,3465,East Texas Regional Airport,Longview,United States,GGG,KGGG,32.38399887,-94.71150208,365.0,-6.0,A,America/Chicago,airport,OurAirports,Longview,TX,48,TX,Texas,1779801
590,8931,Longview Ranch Airport,Longview,United States,\N,OG39,44.6617012,-119.6520004,2080.0,-8.0,A,America/Los_Angeles,airport,OurAirports,Longview,TX,48,TX,Texas,1779801
591,3472,Gainesville Regional Airport,Gainesville,United States,GNV,KGNV,29.69009972,-82.27179718,152.0,-5.0,A,America/New_York,airport,OurAirports,Gainesville,TX,48,TX,Texas,1779801
592,88,Lee Gilmer Memorial Airport,Gainesville,United States,GVL,KGVL,34.27259827,-83.8302002,1276.0,-5.0,A,America/New_York,airport,OurAirports,Gainesville,TX,48,TX,Texas,1779801
593,3473,Memphis International Airport,Memphis,United States,MEM,KMEM,35.04240036,-89.97669983,341.0,-6.0,A,America/Chicago,airport,OurAirports,Memphis,TX,48,TX,Texas,1779801
